[
  {
    "id": "cmlz63a9200mxxxfk1wap2cn4",
    "code": "991",
    "nameEL": "Άγιο Όρος (Αυτοδιοίκητο)",
    "nameEN": "Mount Athos (Autonomous)",
    "level": 3,
    "parentCode": null,
    "latitude": null,
    "longitude": null,
    "createdAt": "2026-02-23T12:43:06.279Z",
    "updatedAt": "2026-02-27T06:00:52.261Z",
    "children": [
      {
        "id": "cmlz63aw000mzxxfkwwh4prnb",
        "code": "99199",
        "nameEL": "ΑΓΙΟ ΟΡΟΣ",
        "nameEN": "Mount Athos",
        "level": 4,
        "parentCode": "991",
        "latitude": 40.2844848,
        "longitude": 24.1850284,
        "createdAt": "2026-02-23T12:43:07.105Z",
        "updatedAt": "2026-03-13T11:05:02.488Z",
        "children": [
          {
            "id": "cmlz63bkp00n1xxfk6kyrho1l",
            "code": "9919901",
            "nameEL": "ΑΓΙΟ ΟΡΟΣ (Αυτοδιοίκητο)",
            "nameEN": "MOUNT ATHOS (Autonomous)",
            "level": 5,
            "parentCode": "99199",
            "latitude": null,
            "longitude": null,
            "createdAt": "2026-02-23T12:43:07.993Z",
            "updatedAt": "2026-02-27T06:00:52.298Z",
            "children": []
          }
        ]
      }
    ]
  },
  {
    "id": "cmlz5qnyl0001xxfkrycnttws",
    "code": "111",
    "nameEL": "ΠΕΡΙΦΕΡΕΙΑ ΑΝΑΤΟΛΙΚΗΣ ΜΑΚΕΔΟΝΙΑΣ ΚΑΙ ΘΡΑΚΗΣ",
    "nameEN": "Region of Eastern Macedonia and Thrace",
    "level": 3,
    "parentCode": null,
    "latitude": 41.1141064,
    "longitude": 25.0917478,
    "createdAt": "2026-02-23T12:33:17.515Z",
    "updatedAt": "2026-03-13T10:58:24.669Z",
    "children": [
      {
        "id": "cmlz5qprh000dxxfkz965v932",
        "code": "11102",
        "nameEL": "ΠΕΡΙΦΕΡΕΙΑΚΗ ΕΝΟΤΗΤΑ ΔΡΑΜΑΣ",
        "nameEN": "Drama Regional Unit",
        "level": 4,
        "parentCode": "111",
        "latitude": 41.2706579,
        "longitude": 24.1554801,
        "createdAt": "2026-02-23T12:33:19.853Z",
        "updatedAt": "2026-03-13T10:58:31.049Z",
        "children": [
          {
            "id": "cmlz5qqeg000hxxfkg6j794cr",
            "code": "1110202",
            "nameEL": "ΔΗΜΟΣ ΔΟΞΑΤΟΥ",
            "nameEN": "Municipality of Doxato",
            "level": 5,
            "parentCode": "11102",
            "latitude": 41.0595867,
            "longitude": 24.2227293,
            "createdAt": "2026-02-23T12:33:20.681Z",
            "updatedAt": "2026-03-13T10:58:32.784Z",
            "children": []
          },
          {
            "id": "cmlz5qq3a000fxxfk158t5ffa",
            "code": "1110201",
            "nameEL": "ΔΗΜΟΣ ΔΡΑΜΑΣ",
            "nameEN": "Municipality of Drama",
            "level": 5,
            "parentCode": "11102",
            "latitude": 41.3157063,
            "longitude": 24.2037782,
            "createdAt": "2026-02-23T12:33:20.278Z",
            "updatedAt": "2026-03-13T10:58:31.886Z",
            "children": []
          },
          {
            "id": "cmlz5qqnk000jxxfkhzavh6nb",
            "code": "1110203",
            "nameEL": "ΔΗΜΟΣ ΚΑΤΩ ΝΕΥΡΟΚΟΠΙΟΥ",
            "nameEN": "Municipality of Kato Nevrokopi",
            "level": 5,
            "parentCode": "11102",
            "latitude": 41.3820331,
            "longitude": 23.8971246,
            "createdAt": "2026-02-23T12:33:21.008Z",
            "updatedAt": "2026-03-13T10:58:33.877Z",
            "children": []
          },
          {
            "id": "cmlz5qqzu000lxxfkqrk6zaat",
            "code": "1110204",
            "nameEL": "ΔΗΜΟΣ ΠΑΡΑΝΕΣΤΙΟΥ",
            "nameEN": "Municipality of Paranesti",
            "level": 5,
            "parentCode": "11102",
            "latitude": 41.2666146,
            "longitude": 24.5002964,
            "createdAt": "2026-02-23T12:33:21.451Z",
            "updatedAt": "2026-03-13T10:58:34.835Z",
            "children": []
          },
          {
            "id": "cmlz5qrbq000nxxfkzy44n49b",
            "code": "1110205",
            "nameEL": "ΔΗΜΟΣ ΠΡΟΣΟΤΣΑΝΗΣ",
            "nameEN": "Prootsani Municipality",
            "level": 5,
            "parentCode": "11102",
            "latitude": 41.159498,
            "longitude": 23.921339,
            "createdAt": "2026-02-23T12:33:21.878Z",
            "updatedAt": "2026-03-13T10:58:35.774Z",
            "children": []
          }
        ]
      },
      {
        "id": "cmlz5qrmv000pxxfkerrd5ptf",
        "code": "11103",
        "nameEL": "ΠΕΡΙΦΕΡΕΙΑΚΗ ΕΝΟΤΗΤΑ ΕΒΡΟΥ",
        "nameEN": "Evros Regional Unit",
        "level": 4,
        "parentCode": "111",
        "latitude": 40.4509174,
        "longitude": 25.5713487,
        "createdAt": "2026-02-23T12:33:22.280Z",
        "updatedAt": "2026-03-13T10:58:36.675Z",
        "children": [
          {
            "id": "cmlz5qrv8000rxxfkciinik10",
            "code": "1110301",
            "nameEL": "ΔΗΜΟΣ ΑΛΕΞΑΝΔΡΟΥΠΟΛΗΣ",
            "nameEN": "Municipality of Alexandroupoli",
            "level": 5,
            "parentCode": "11103",
            "latitude": 40.9186632,
            "longitude": 25.9555598,
            "createdAt": "2026-02-23T12:33:22.581Z",
            "updatedAt": "2026-03-13T10:58:37.636Z",
            "children": []
          },
          {
            "id": "cmlz5qs5o000txxfkrxngr27t",
            "code": "1110302",
            "nameEL": "ΔΗΜΟΣ ΔΙΔΥΜΟΤΕΙΧΟΥ",
            "nameEN": "Municipality of Didymoteicho",
            "level": 5,
            "parentCode": "11103",
            "latitude": 41.4088606,
            "longitude": 26.396908,
            "createdAt": "2026-02-23T12:33:22.956Z",
            "updatedAt": "2026-03-13T10:58:38.611Z",
            "children": []
          },
          {
            "id": "cmlz5qsr1000vxxfkasgea9q4",
            "code": "1110303",
            "nameEL": "ΔΗΜΟΣ ΟΡΕΣΤΙΑΔΑΣ",
            "nameEN": "Municipality of Orestiada",
            "level": 5,
            "parentCode": "11103",
            "latitude": 41.5886628,
            "longitude": 26.373318,
            "createdAt": "2026-02-23T12:33:23.573Z",
            "updatedAt": "2026-03-13T10:58:39.499Z",
            "children": []
          },
          {
            "id": "cmlz5qt32000xxxfk23blj41m",
            "code": "1110304",
            "nameEL": "ΔΗΜΟΣ ΣΑΜΟΘΡΑΚΗΣ",
            "nameEN": "Municipality of Samothrace",
            "level": 5,
            "parentCode": "11103",
            "latitude": 40.4511544,
            "longitude": 25.5856572,
            "createdAt": "2026-02-23T12:33:24.159Z",
            "updatedAt": "2026-03-13T10:58:40.558Z",
            "children": []
          },
          {
            "id": "cmlz5qtgr000zxxfkmsq2fu1l",
            "code": "1110305",
            "nameEL": "ΔΗΜΟΣ ΣΟΥΦΛΙΟΥ",
            "nameEN": "Municipality of Soufli",
            "level": 5,
            "parentCode": "11103",
            "latitude": 41.179491,
            "longitude": 26.1043959,
            "createdAt": "2026-02-23T12:33:24.651Z",
            "updatedAt": "2026-03-13T10:58:41.388Z",
            "children": []
          }
        ]
      },
      {
        "id": "cmlz5qtv10011xxfkm2nnpyg1",
        "code": "11104",
        "nameEL": "ΠΕΡΙΦΕΡΕΙΑΚΗ ΕΝΟΤΗΤΑ ΘΑΣΟΥ",
        "nameEN": "Thassos Regional Unit",
        "level": 4,
        "parentCode": "111",
        "latitude": 40.6602897,
        "longitude": 24.648614,
        "createdAt": "2026-02-23T12:33:25.165Z",
        "updatedAt": "2026-03-13T10:58:42.279Z",
        "children": [
          {
            "id": "cmlz5qu8f0013xxfkxz0yyg58",
            "code": "1110401",
            "nameEL": "ΔΗΜΟΣ ΘΑΣΟΥ",
            "nameEN": "Municipality of Thasos",
            "level": 5,
            "parentCode": "11104",
            "latitude": 40.6844479,
            "longitude": 24.6512064,
            "createdAt": "2026-02-23T12:33:25.647Z",
            "updatedAt": "2026-03-13T10:58:43.215Z",
            "children": []
          }
        ]
      },
      {
        "id": "cmlz5qujn0015xxfkalzrc7wq",
        "code": "11105",
        "nameEL": "ΠΕΡΙΦΕΡΕΙΑΚΗ ΕΝΟΤΗΤΑ ΚΑΒΑΛΑΣ",
        "nameEN": "Kavala Regional Unit",
        "level": 4,
        "parentCode": "111",
        "latitude": 40.9247201,
        "longitude": 24.4347528,
        "createdAt": "2026-02-23T12:33:26.052Z",
        "updatedAt": "2026-03-13T10:58:44.157Z",
        "children": [
          {
            "id": "cmlz5quup0017xxfk8m2u9it5",
            "code": "1110501",
            "nameEL": "ΔΗΜΟΣ ΚΑΒΑΛΑΣ",
            "nameEN": "Municipality of Kavala",
            "level": 5,
            "parentCode": "11105",
            "latitude": 41.0191374,
            "longitude": 24.3851254,
            "createdAt": "2026-02-23T12:33:26.449Z",
            "updatedAt": "2026-03-13T10:58:45.032Z",
            "children": []
          },
          {
            "id": "cmlz5qv6g0019xxfkeb11mqyv",
            "code": "1110502",
            "nameEL": "ΔΗΜΟΣ ΝΕΣΤΟΥ",
            "nameEN": "Municipality of Nestos",
            "level": 5,
            "parentCode": "11105",
            "latitude": 41.026108,
            "longitude": 24.6315636,
            "createdAt": "2026-02-23T12:33:26.872Z",
            "updatedAt": "2026-03-13T10:58:45.979Z",
            "children": []
          },
          {
            "id": "cmlz5qvkz001bxxfkcylyncbj",
            "code": "1110503",
            "nameEL": "ΔΗΜΟΣ ΠΑΓΓΑΙΟΥ",
            "nameEN": "Municipality of Pangaio",
            "level": 5,
            "parentCode": "11105",
            "latitude": 40.8618661,
            "longitude": 24.1622865,
            "createdAt": "2026-02-23T12:33:27.395Z",
            "updatedAt": "2026-03-13T10:58:46.946Z",
            "children": []
          }
        ]
      },
      {
        "id": "cmlz5qvum001dxxfk900l7rya",
        "code": "11106",
        "nameEL": "ΠΕΡΙΦΕΡΕΙΑΚΗ ΕΝΟΤΗΤΑ ΞΑΝΘΗΣ",
        "nameEN": "Xanthi Regional Unit",
        "level": 4,
        "parentCode": "111",
        "latitude": 41.0963999,
        "longitude": 24.9147635,
        "createdAt": "2026-02-23T12:33:27.743Z",
        "updatedAt": "2026-03-13T10:58:47.844Z",
        "children": [
          {
            "id": "cmlz5qwk2001hxxfkpigs1fdm",
            "code": "1110602",
            "nameEL": "ΔΗΜΟΣ ΑΒΔΗΡΩΝ",
            "nameEN": "Municipality of Avdira",
            "level": 5,
            "parentCode": "11106",
            "latitude": 41.0435472,
            "longitude": 24.9999073,
            "createdAt": "2026-02-23T12:33:28.658Z",
            "updatedAt": "2026-03-13T10:58:49.929Z",
            "children": []
          },
          {
            "id": "cmlz5qwvb001jxxfkf7veskpa",
            "code": "1110603",
            "nameEL": "ΔΗΜΟΣ ΜΥΚΗΣ",
            "nameEN": "Municipality of Mykines",
            "level": 5,
            "parentCode": "11106",
            "latitude": 41.2874382,
            "longitude": 24.9789922,
            "createdAt": "2026-02-23T12:33:29.063Z",
            "updatedAt": "2026-03-13T10:58:50.973Z",
            "children": []
          },
          {
            "id": "cmlz5qw8z001fxxfkt2zboht8",
            "code": "1110601",
            "nameEL": "ΔΗΜΟΣ ΞΑΝΘΗΣ",
            "nameEN": "Municipality of Xanthi",
            "level": 5,
            "parentCode": "11106",
            "latitude": 41.2087528,
            "longitude": 24.6660522,
            "createdAt": "2026-02-23T12:33:28.260Z",
            "updatedAt": "2026-03-13T10:58:48.728Z",
            "children": []
          },
          {
            "id": "cmlz5qx4k001lxxfk4byv6vjh",
            "code": "1110604",
            "nameEL": "ΔΗΜΟΣ ΤΟΠΕΙΡΟΥ",
            "nameEN": "Municipality of Topiros",
            "level": 5,
            "parentCode": "11106",
            "latitude": 41.0076965,
            "longitude": 24.8212642,
            "createdAt": "2026-02-23T12:33:29.397Z",
            "updatedAt": "2026-03-13T10:58:51.853Z",
            "children": []
          }
        ]
      },
      {
        "id": "cmlz5qoe70003xxfkovxppomq",
        "code": "11101",
        "nameEL": "ΠΕΡΙΦΕΡΕΙΑΚΗ ΕΝΟΤΗΤΑ ΡΟΔΟΠΗΣ",
        "nameEN": "Regional Unit of Rodopi",
        "level": 4,
        "parentCode": "111",
        "latitude": 41.0648192,
        "longitude": 25.4901785,
        "createdAt": "2026-02-23T12:33:18.079Z",
        "updatedAt": "2026-03-13T10:58:25.888Z",
        "children": [
          {
            "id": "cmlz5qox40007xxfkbyz1y6yw",
            "code": "1110102",
            "nameEL": "ΔΗΜΟΣ ΑΡΡΙΑΝΩΝ",
            "nameEN": "Municipality of Arrianon",
            "level": 5,
            "parentCode": "11101",
            "latitude": 41.1908487,
            "longitude": 25.7016427,
            "createdAt": "2026-02-23T12:33:18.760Z",
            "updatedAt": "2026-03-13T10:58:28.332Z",
            "children": []
          },
          {
            "id": "cmlz5qp8w0009xxfkol4eusds",
            "code": "1110103",
            "nameEL": "ΔΗΜΟΣ ΙΑΣΜΟΥ",
            "nameEN": "Municipality of Iasmos",
            "level": 5,
            "parentCode": "11101",
            "latitude": 41.124335,
            "longitude": 25.1713037,
            "createdAt": "2026-02-23T12:33:19.184Z",
            "updatedAt": "2026-03-13T10:58:29.225Z",
            "children": []
          },
          {
            "id": "cmlz5qopw0005xxfkx1albwey",
            "code": "1110101",
            "nameEL": "ΔΗΜΟΣ ΚΟΜΟΤΗΝΗΣ",
            "nameEN": "Municipality of Komotini",
            "level": 5,
            "parentCode": "11101",
            "latitude": 41.1207888,
            "longitude": 25.4426926,
            "createdAt": "2026-02-23T12:33:18.500Z",
            "updatedAt": "2026-03-13T10:58:27.112Z",
            "children": []
          },
          {
            "id": "cmlz5qpk0000bxxfkn94zgt8m",
            "code": "1110104",
            "nameEL": "ΔΗΜΟΣ ΜΑΡΩΝΕΙΑΣ - ΣΑΠΩΝ",
            "nameEN": "Municipality of Maroneia - Sapes",
            "level": 5,
            "parentCode": "11101",
            "latitude": 41.0076396,
            "longitude": 25.6115533,
            "createdAt": "2026-02-23T12:33:19.584Z",
            "updatedAt": "2026-03-13T10:58:30.175Z",
            "children": []
          }
        ]
      }
    ]
  },
  {
    "id": "cmlz5ubyy00dnxxfkc93lnqr0",
    "code": "351",
    "nameEL": "ΠΕΡΙΦΕΡΕΙΑ ΑΤΤΙΚΗΣ",
    "nameEN": "Attica Region",
    "level": 3,
    "parentCode": null,
    "latitude": 37.7561803,
    "longitude": 23.6669006,
    "createdAt": "2026-02-23T12:36:08.602Z",
    "updatedAt": "2026-03-13T11:02:27.559Z",
    "children": [
      {
        "id": "cmlz5up0z00fvxxfkwwbho7vw",
        "code": "35149",
        "nameEL": "ΠΕΡΙΦΕΡΕΙΑΚΗ ΕΝΟΤΗΤΑ ΑΝΑΤΟΛΙΚΗΣ ΑΤΤΙΚΗΣ",
        "nameEN": "Eastern Attica Regional Unit",
        "level": 4,
        "parentCode": "351",
        "latitude": 37.9715827,
        "longitude": 23.9767854,
        "createdAt": "2026-02-23T12:36:25.524Z",
        "updatedAt": "2026-03-13T11:03:04.428Z",
        "children": [
          {
            "id": "cmlz5upap00fxxxfkj4rf7ggi",
            "code": "3514901",
            "nameEL": "ΔΗΜΟΣ ΑΧΑΡΝΩΝ",
            "nameEN": "Municipality of Acharnes",
            "level": 5,
            "parentCode": "35149",
            "latitude": 38.0841607,
            "longitude": 23.7368653,
            "createdAt": "2026-02-23T12:36:25.873Z",
            "updatedAt": "2026-03-13T11:03:05.366Z",
            "children": []
          },
          {
            "id": "cmlz5uplb00fzxxfkc31pwqur",
            "code": "3514902",
            "nameEL": "ΔΗΜΟΣ ΒΑΡΗΣ - ΒΟΥΛΑΣ - ΒΟΥΛΙΑΓΜΕΝΗΣ",
            "nameEN": "Municipality of Vari - Voula - Vouliagmeni",
            "level": 5,
            "parentCode": "35149",
            "latitude": 37.8356908,
            "longitude": 23.8018511,
            "createdAt": "2026-02-23T12:36:26.255Z",
            "updatedAt": "2026-03-13T11:03:06.305Z",
            "children": []
          },
          {
            "id": "cmlz5upxv00g1xxfkv2tzlapp",
            "code": "3514903",
            "nameEL": "ΔΗΜΟΣ ΔΙΟΝΥΣΟΥ",
            "nameEN": "Municipality of Dionysos",
            "level": 5,
            "parentCode": "35149",
            "latitude": 38.1152257,
            "longitude": 23.8960186,
            "createdAt": "2026-02-23T12:36:26.707Z",
            "updatedAt": "2026-03-13T11:03:07.153Z",
            "children": []
          },
          {
            "id": "cmlz5uq5500g3xxfksecamefo",
            "code": "3514904",
            "nameEL": "ΔΗΜΟΣ ΚΡΩΠΙΑΣ",
            "nameEN": "Municipality of Kropia",
            "level": 5,
            "parentCode": "35149",
            "latitude": 37.8747508,
            "longitude": 23.8559006,
            "createdAt": "2026-02-23T12:36:26.969Z",
            "updatedAt": "2026-03-13T11:03:08.095Z",
            "children": []
          },
          {
            "id": "cmlz5uqg100g5xxfk1z7wnrfg",
            "code": "3514905",
            "nameEL": "ΔΗΜΟΣ ΛΑΥΡΕΩΤΙΚΗΣ",
            "nameEN": "Municipality of Lavreotiki",
            "level": 5,
            "parentCode": "35149",
            "latitude": 37.7528118,
            "longitude": 24.0187068,
            "createdAt": "2026-02-23T12:36:27.362Z",
            "updatedAt": "2026-03-13T11:03:08.981Z",
            "children": []
          },
          {
            "id": "cmlz5uqqx00g7xxfkev3iyt1y",
            "code": "3514906",
            "nameEL": "ΔΗΜΟΣ ΜΑΡΑΘΩΝΟΣ",
            "nameEN": "Municipality of Marathon",
            "level": 5,
            "parentCode": "35149",
            "latitude": 38.1619804,
            "longitude": 23.9890647,
            "createdAt": "2026-02-23T12:36:27.753Z",
            "updatedAt": "2026-03-13T11:03:09.874Z",
            "children": []
          },
          {
            "id": "cmlz5ur7800g9xxfkwj3l0g94",
            "code": "3514907",
            "nameEL": "ΔΗΜΟΣ ΜΑΡΚΟΠΟΥΛΟΥ ΜΕΣΟΓΑΙΑΣ",
            "nameEN": "Municipality of Markopoulo Mesogaias",
            "level": 5,
            "parentCode": "35149",
            "latitude": 37.8918004,
            "longitude": 23.9614399,
            "createdAt": "2026-02-23T12:36:28.341Z",
            "updatedAt": "2026-03-13T11:03:10.854Z",
            "children": []
          },
          {
            "id": "cmlz5urgv00gbxxfky6vr9vtv",
            "code": "3514908",
            "nameEL": "ΔΗΜΟΣ ΠΑΙΑΝΙΑΣ",
            "nameEN": "Paiania Municipality",
            "level": 5,
            "parentCode": "35149",
            "latitude": 37.9608088,
            "longitude": 23.8556008,
            "createdAt": "2026-02-23T12:36:28.687Z",
            "updatedAt": "2026-03-13T11:03:11.828Z",
            "children": []
          },
          {
            "id": "cmlz5urt000gdxxfk9jvttubg",
            "code": "3514909",
            "nameEL": "ΔΗΜΟΣ ΠΑΛΛΗΝΗΣ",
            "nameEN": "Municipality of Pallini",
            "level": 5,
            "parentCode": "35149",
            "latitude": 38.010071,
            "longitude": 23.8833531,
            "createdAt": "2026-02-23T12:36:29.124Z",
            "updatedAt": "2026-03-13T11:03:12.811Z",
            "children": []
          },
          {
            "id": "cmlz5us5400gfxxfkpvilchwu",
            "code": "3514910",
            "nameEL": "ΔΗΜΟΣ ΡΑΦΗΝΑΣ - ΠΙΚΕΡΜΙΟΥ",
            "nameEN": "Municipality of Rafina-Pikermi",
            "level": 5,
            "parentCode": "35149",
            "latitude": 38.0206609,
            "longitude": 23.9536516,
            "createdAt": "2026-02-23T12:36:29.560Z",
            "updatedAt": "2026-03-13T11:03:13.692Z",
            "children": []
          },
          {
            "id": "cmlz5usgl00ghxxfkiz2p1fel",
            "code": "3514911",
            "nameEL": "ΔΗΜΟΣ ΣΑΡΩΝΙΚΟΥ",
            "nameEN": "Municipality of Saronikos",
            "level": 5,
            "parentCode": "35149",
            "latitude": 37.7669562,
            "longitude": 23.9333952,
            "createdAt": "2026-02-23T12:36:29.973Z",
            "updatedAt": "2026-03-13T11:03:14.543Z",
            "children": []
          },
          {
            "id": "cmlz5usrs00gjxxfk2nu5v15n",
            "code": "3514912",
            "nameEL": "ΔΗΜΟΣ ΣΠΑΤΩΝ - ΑΡΤΕΜΙΔΟΣ",
            "nameEN": "Municipality of Spata-Artemida",
            "level": 5,
            "parentCode": "35149",
            "latitude": 37.9684646,
            "longitude": 23.9452767,
            "createdAt": "2026-02-23T12:36:30.376Z",
            "updatedAt": "2026-03-13T11:03:15.487Z",
            "children": []
          },
          {
            "id": "cmlz5ut0700glxxfk1npmwbyh",
            "code": "3514913",
            "nameEL": "ΔΗΜΟΣ ΩΡΩΠΟΥ",
            "nameEN": "Oropou Municipality",
            "level": 5,
            "parentCode": "35149",
            "latitude": 38.2456157,
            "longitude": 23.7715233,
            "createdAt": "2026-02-23T12:36:30.680Z",
            "updatedAt": "2026-03-13T11:03:16.491Z",
            "children": []
          }
        ]
      },
      {
        "id": "cmlz5ufr400e7xxfkmno0fmat",
        "code": "35146",
        "nameEL": "ΠΕΡΙΦΕΡΕΙΑΚΗ ΕΝΟΤΗΤΑ ΒΟΡΕΙΟΥ ΤΟΜΕΑ ΑΘΗΝΩΝ",
        "nameEN": "NORTH SECTOR OF ATHENS REGIONAL UNIT",
        "level": 4,
        "parentCode": "351",
        "latitude": 38.0479337,
        "longitude": 23.8511485,
        "createdAt": "2026-02-23T12:36:13.505Z",
        "updatedAt": "2026-03-13T11:02:36.844Z",
        "children": [
          {
            "id": "cmlz5ugc100ebxxfkz14htaly",
            "code": "3514602",
            "nameEL": "ΔΗΜΟΣ ΑΓΙΑΣ ΠΑΡΑΣΚΕΥΗΣ",
            "nameEN": "Municipality of Agia Paraskevi",
            "level": 5,
            "parentCode": "35146",
            "latitude": 38.0042329,
            "longitude": 23.8238424,
            "createdAt": "2026-02-23T12:36:14.258Z",
            "updatedAt": "2026-03-13T11:02:38.746Z",
            "children": []
          },
          {
            "id": "cmlz5ug1h00e9xxfkv9skips8",
            "code": "3514601",
            "nameEL": "ΔΗΜΟΣ ΑΜΑΡΟΥΣΙΟΥ",
            "nameEN": "Amaroussio Municipality",
            "level": 5,
            "parentCode": "35146",
            "latitude": 38.0455878,
            "longitude": 23.8052474,
            "createdAt": "2026-02-23T12:36:13.878Z",
            "updatedAt": "2026-03-13T11:02:37.738Z",
            "children": []
          },
          {
            "id": "cmlz5ugt600edxxfk3zt6jpwx",
            "code": "3514603",
            "nameEL": "ΔΗΜΟΣ ΒΡΙΛΗΣΣΙΩΝ",
            "nameEN": "Municipality of Vrilissia",
            "level": 5,
            "parentCode": "35146",
            "latitude": 38.0389867,
            "longitude": 23.8353819,
            "createdAt": "2026-02-23T12:36:14.874Z",
            "updatedAt": "2026-03-13T11:02:39.731Z",
            "children": []
          },
          {
            "id": "cmlz5uh3r00efxxfkr2sedwd9",
            "code": "3514604",
            "nameEL": "ΔΗΜΟΣ ΗΡΑΚΛΕΙΟΥ",
            "nameEN": "Municipality of Heraklion",
            "level": 5,
            "parentCode": "35146",
            "latitude": 35.2507456,
            "longitude": 25.0782871,
            "createdAt": "2026-02-23T12:36:15.255Z",
            "updatedAt": "2026-03-13T11:02:40.617Z",
            "children": []
          },
          {
            "id": "cmlz5uhfy00ehxxfk1g8uof88",
            "code": "3514605",
            "nameEL": "ΔΗΜΟΣ ΚΗΦΙΣΙΑΣ",
            "nameEN": "Municipality of Kifisia",
            "level": 5,
            "parentCode": "35146",
            "latitude": 38.0915732,
            "longitude": 23.8217323,
            "createdAt": "2026-02-23T12:36:15.694Z",
            "updatedAt": "2026-03-13T11:02:41.506Z",
            "children": []
          },
          {
            "id": "cmlz5uhqp00ejxxfkc4wouigu",
            "code": "3514606",
            "nameEL": "ΔΗΜΟΣ ΛΥΚΟΒΡΥΣΗΣ - ΠΕΥΚΗΣ",
            "nameEN": "Municipality of Lykovrysi - Pefki",
            "level": 5,
            "parentCode": "35146",
            "latitude": 38.0638742,
            "longitude": 23.7890701,
            "createdAt": "2026-02-23T12:36:16.081Z",
            "updatedAt": "2026-03-13T11:02:42.433Z",
            "children": []
          },
          {
            "id": "cmlz5ui5r00elxxfkvvnvep5x",
            "code": "3514607",
            "nameEL": "ΔΗΜΟΣ ΜΕΤΑΜΟΡΦΩΣΕΩΣ",
            "nameEN": "Municipality of Metamorfosis",
            "level": 5,
            "parentCode": "35146",
            "latitude": 38.0650932,
            "longitude": 23.7613579,
            "createdAt": "2026-02-23T12:36:16.623Z",
            "updatedAt": "2026-03-13T11:02:43.395Z",
            "children": []
          },
          {
            "id": "cmlz5uifd00enxxfk03sswb2x",
            "code": "3514608",
            "nameEL": "ΔΗΜΟΣ ΝΕΑΣ ΙΩΝΙΑΣ",
            "nameEN": "Municipality of Nea Ionia",
            "level": 5,
            "parentCode": "35146",
            "latitude": 38.0393744,
            "longitude": 23.7575698,
            "createdAt": "2026-02-23T12:36:16.969Z",
            "updatedAt": "2026-03-13T11:02:44.285Z",
            "children": []
          },
          {
            "id": "cmlz5uip700epxxfkut72s7c1",
            "code": "3514609",
            "nameEL": "ΔΗΜΟΣ ΠΑΠΑΓΟΥ - ΧΟΛΑΡΓΟΥ",
            "nameEN": "Municipality of Papagos - Cholargos",
            "level": 5,
            "parentCode": "35146",
            "latitude": 37.9911974,
            "longitude": 23.8052352,
            "createdAt": "2026-02-23T12:36:17.323Z",
            "updatedAt": "2026-03-13T11:02:45.168Z",
            "children": []
          },
          {
            "id": "cmlz5uiyh00erxxfkh4pjx4e5",
            "code": "3514610",
            "nameEL": "ΔΗΜΟΣ ΠΕΝΤΕΛΗΣ",
            "nameEN": "Municipality of Penteli",
            "level": 5,
            "parentCode": "35146",
            "latitude": 38.0568832,
            "longitude": 23.8848262,
            "createdAt": "2026-02-23T12:36:17.657Z",
            "updatedAt": "2026-03-13T11:02:46.126Z",
            "children": []
          },
          {
            "id": "cmlz5uj9v00etxxfkhr83h5lt",
            "code": "3514611",
            "nameEL": "ΔΗΜΟΣ ΦΙΛΟΘΕΗΣ - ΨΥΧΙΚΟΥ",
            "nameEN": "Municipality of Filothei-Psychiko",
            "level": 5,
            "parentCode": "35146",
            "latitude": 38.0158557,
            "longitude": 23.7737626,
            "createdAt": "2026-02-23T12:36:18.068Z",
            "updatedAt": "2026-03-13T11:02:47.119Z",
            "children": []
          },
          {
            "id": "cmlz5ujl700evxxfkslqauqwp",
            "code": "3514612",
            "nameEL": "ΔΗΜΟΣ ΧΑΛΑΝΔΡΙΟΥ",
            "nameEN": "Chalandri Municipality",
            "level": 5,
            "parentCode": "35146",
            "latitude": 38.0247428,
            "longitude": 23.8163033,
            "createdAt": "2026-02-23T12:36:18.476Z",
            "updatedAt": "2026-03-13T11:02:48.071Z",
            "children": []
          }
        ]
      },
      {
        "id": "cmlz5utb000gnxxfkj1jyc0q1",
        "code": "35150",
        "nameEL": "ΠΕΡΙΦΕΡΕΙΑΚΗ ΕΝΟΤΗΤΑ ΔΥΤΙΚΗΣ ΑΤΤΙΚΗΣ",
        "nameEN": "Regional Unit of West Attica",
        "level": 4,
        "parentCode": "351",
        "latitude": 38.0771887,
        "longitude": 23.4146105,
        "createdAt": "2026-02-23T12:36:31.069Z",
        "updatedAt": "2026-03-13T11:03:17.411Z",
        "children": [
          {
            "id": "cmlz5utzg00grxxfkvjg67t6x",
            "code": "3515002",
            "nameEL": "ΔΗΜΟΣ ΑΣΠΡΟΠΥΡΓΟΥ",
            "nameEN": "Municipality of Aspropyrgos",
            "level": 5,
            "parentCode": "35150",
            "latitude": 38.0956363,
            "longitude": 23.596455,
            "createdAt": "2026-02-23T12:36:31.948Z",
            "updatedAt": "2026-03-13T11:03:19.215Z",
            "children": []
          },
          {
            "id": "cmlz5utn100gpxxfku3nq48lr",
            "code": "3515001",
            "nameEL": "ΔΗΜΟΣ ΕΛΕΥΣΙΝΑΣ",
            "nameEN": "Municipality of Elefsina",
            "level": 5,
            "parentCode": "35150",
            "latitude": 38.0798971,
            "longitude": 23.5362004,
            "createdAt": "2026-02-23T12:36:31.502Z",
            "updatedAt": "2026-03-13T11:03:18.362Z",
            "children": []
          },
          {
            "id": "cmlz5uu8100gtxxfkm8vypzvo",
            "code": "3515003",
            "nameEL": "ΔΗΜΟΣ ΜΑΝΔΡΑΣ - ΕΙΔΥΛΛΙΑΣ",
            "nameEN": "Municipality of Mandra - Eidyllia",
            "level": 5,
            "parentCode": "35150",
            "latitude": 38.1518464,
            "longitude": 23.3672543,
            "createdAt": "2026-02-23T12:36:32.258Z",
            "updatedAt": "2026-03-13T11:03:20.114Z",
            "children": []
          },
          {
            "id": "cmlz5uukr00gvxxfkr7y9skno",
            "code": "3515004",
            "nameEL": "ΔΗΜΟΣ ΜΕΓΑΡΕΩΝ",
            "nameEN": "Municipality of Megara",
            "level": 5,
            "parentCode": "35150",
            "latitude": 38.0329127,
            "longitude": 23.2985192,
            "createdAt": "2026-02-23T12:36:32.715Z",
            "updatedAt": "2026-03-13T11:03:20.998Z",
            "children": []
          },
          {
            "id": "cmlz5uux400gxxxfkccib16jc",
            "code": "3515005",
            "nameEL": "ΔΗΜΟΣ ΦΥΛΗΣ",
            "nameEN": "Municipality of Fyli",
            "level": 5,
            "parentCode": "35150",
            "latitude": 38.1274839,
            "longitude": 23.6733541,
            "createdAt": "2026-02-23T12:36:33.161Z",
            "updatedAt": "2026-03-13T11:03:21.826Z",
            "children": []
          }
        ]
      },
      {
        "id": "cmlz5ujva00exxxfk3hwcape8",
        "code": "35147",
        "nameEL": "ΠΕΡΙΦΕΡΕΙΑΚΗ ΕΝΟΤΗΤΑ ΔΥΤΙΚΟΥ ΤΟΜΕΑ ΑΘΗΝΩΝ",
        "nameEN": "West Athens Regional Unit",
        "level": 4,
        "parentCode": "351",
        "latitude": 38.0214706,
        "longitude": 23.6753043,
        "createdAt": "2026-02-23T12:36:18.839Z",
        "updatedAt": "2026-03-13T11:02:48.895Z",
        "children": [
          {
            "id": "cmlz5ukex00f1xxfkudzkizp2",
            "code": "3514702",
            "nameEL": "ΔΗΜΟΣ ΑΓΙΑΣ ΒΑΡΒΑΡΑΣ",
            "nameEN": "Municipality of Agia Varvara",
            "level": 5,
            "parentCode": "35147",
            "latitude": 37.9912631,
            "longitude": 23.6574265,
            "createdAt": "2026-02-23T12:36:19.484Z",
            "updatedAt": "2026-03-13T11:02:50.741Z",
            "children": []
          },
          {
            "id": "cmlz5ukoh00f3xxfktef0jtij",
            "code": "3514703",
            "nameEL": "ΔΗΜΟΣ ΑΓΙΩΝ ΑΝΑΡΓΥΡΩΝ - ΚΑΜΑΤΕΡΟΥ",
            "nameEN": "Municipality of Agioi Anargyroi - Kamatero",
            "level": 5,
            "parentCode": "35147",
            "latitude": 38.0400243,
            "longitude": 23.7296748,
            "createdAt": "2026-02-23T12:36:19.889Z",
            "updatedAt": "2026-03-13T11:02:51.627Z",
            "children": []
          },
          {
            "id": "cmlz5ul0i00f5xxfkuwjo4rq2",
            "code": "3514704",
            "nameEL": "ΔΗΜΟΣ ΑΙΓΑΛΕΩ",
            "nameEN": "Municipality of Aigaleo",
            "level": 5,
            "parentCode": "35147",
            "latitude": 37.9915665,
            "longitude": 23.6818754,
            "createdAt": "2026-02-23T12:36:20.322Z",
            "updatedAt": "2026-03-13T11:02:52.531Z",
            "children": []
          },
          {
            "id": "cmlz5ulbt00f7xxfkzlg2dpji",
            "code": "3514705",
            "nameEL": "ΔΗΜΟΣ ΙΛΙΟΥ",
            "nameEN": "Municipality of Ilion",
            "level": 5,
            "parentCode": "35147",
            "latitude": 38.0379047,
            "longitude": 23.7100056,
            "createdAt": "2026-02-23T12:36:20.729Z",
            "updatedAt": "2026-03-13T11:02:53.464Z",
            "children": []
          },
          {
            "id": "cmlz5uk3800ezxxfkjen11gaw",
            "code": "3514701",
            "nameEL": "ΔΗΜΟΣ ΠΕΡΙΣΤΕΡΙΟΥ",
            "nameEN": "Peristeri Municipality",
            "level": 5,
            "parentCode": "35147",
            "latitude": 38.0156388,
            "longitude": 23.6912591,
            "createdAt": "2026-02-23T12:36:19.124Z",
            "updatedAt": "2026-03-13T11:02:49.771Z",
            "children": []
          },
          {
            "id": "cmlz5ulnv00f9xxfkumhxshmz",
            "code": "3514706",
            "nameEL": "ΔΗΜΟΣ ΠΕΤΡΟΥΠΟΛΕΩΣ",
            "nameEN": "Petroupoli Municipality",
            "level": 5,
            "parentCode": "35147",
            "latitude": null,
            "longitude": null,
            "createdAt": "2026-02-23T12:36:21.164Z",
            "updatedAt": "2026-02-27T06:00:13.942Z",
            "children": []
          },
          {
            "id": "cmlz5ulza00fbxxfk2ui6gkby",
            "code": "3514707",
            "nameEL": "ΔΗΜΟΣ ΧΑΪΔΑΡΙΟΥ",
            "nameEN": "Chaidari",
            "level": 5,
            "parentCode": "35147",
            "latitude": 38.0129575,
            "longitude": 23.6337839,
            "createdAt": "2026-02-23T12:36:21.575Z",
            "updatedAt": "2026-03-13T11:02:55.109Z",
            "children": []
          }
        ]
      },
      {
        "id": "cmlz5uc9p00dpxxfkdshoyviq",
        "code": "35145",
        "nameEL": "ΠΕΡΙΦΕΡΕΙΑΚΗ ΕΝΟΤΗΤΑ ΚΕΝΤΡΙΚΟΥ ΤΟΜΕΑ ΑΘΗΝΩΝ",
        "nameEN": "Regional Unit of Central Sector of Athens",
        "level": 4,
        "parentCode": "351",
        "latitude": 37.9874853,
        "longitude": 23.7403132,
        "createdAt": "2026-02-23T12:36:08.990Z",
        "updatedAt": "2026-03-13T11:02:28.668Z",
        "children": [
          {
            "id": "cmlz5ucl500drxxfkrqdqkz1d",
            "code": "3514501",
            "nameEL": "ΔΗΜΟΣ ΑΘΗΝΑΙΩΝ",
            "nameEN": "Municipality of Athens",
            "level": 5,
            "parentCode": "35145",
            "latitude": 37.9908581,
            "longitude": 23.7414742,
            "createdAt": "2026-02-23T12:36:09.401Z",
            "updatedAt": "2026-03-13T11:02:29.509Z",
            "children": []
          },
          {
            "id": "cmlz5ucv400dtxxfkrerlois2",
            "code": "3514502",
            "nameEL": "ΔΗΜΟΣ ΒΥΡΩΝΟΣ",
            "nameEN": "Byron Municipality",
            "level": 5,
            "parentCode": "35145",
            "latitude": 41.0794497,
            "longitude": 23.5395111,
            "createdAt": "2026-02-23T12:36:09.760Z",
            "updatedAt": "2026-03-13T11:02:30.459Z",
            "children": []
          },
          {
            "id": "cmlz5udea00dvxxfksjppxh8q",
            "code": "3514503",
            "nameEL": "ΔΗΜΟΣ ΓΑΛΑΤΣΙΟΥ",
            "nameEN": "Municipality of Galatsi",
            "level": 5,
            "parentCode": "35145",
            "latitude": 38.0194399,
            "longitude": 23.7555387,
            "createdAt": "2026-02-23T12:36:10.451Z",
            "updatedAt": "2026-03-13T11:02:31.439Z",
            "children": []
          },
          {
            "id": "cmlz5udqd00dxxxfkx2k20wu3",
            "code": "3514504",
            "nameEL": "ΔΗΜΟΣ ΔΑΦΝΗΣ - ΥΜΗΤΤΟΥ",
            "nameEN": "Municipality of Dafni - Ymittos",
            "level": 5,
            "parentCode": "35145",
            "latitude": 37.9496828,
            "longitude": 23.7459867,
            "createdAt": "2026-02-23T12:36:10.885Z",
            "updatedAt": "2026-03-13T11:02:32.437Z",
            "children": []
          },
          {
            "id": "cmlz5ue2i00dzxxfktapxy3ky",
            "code": "3514505",
            "nameEL": "ΔΗΜΟΣ ΖΩΓΡΑΦΟΥ",
            "nameEN": "Zografou Municipality",
            "level": 5,
            "parentCode": "35145",
            "latitude": 37.9743349,
            "longitude": 23.7913482,
            "createdAt": "2026-02-23T12:36:11.322Z",
            "updatedAt": "2026-03-13T11:02:33.379Z",
            "children": []
          },
          {
            "id": "cmlz5ueen00e1xxfkxsoreuv5",
            "code": "3514506",
            "nameEL": "ΔΗΜΟΣ ΗΛΙΟΥΠΟΛΕΩΣ",
            "nameEN": "Municipality of Ilioupoli",
            "level": 5,
            "parentCode": "35145",
            "latitude": null,
            "longitude": null,
            "createdAt": "2026-02-23T12:36:11.759Z",
            "updatedAt": "2026-02-27T06:00:08.470Z",
            "children": []
          },
          {
            "id": "cmlz5ueq900e3xxfk8iygdb81",
            "code": "3514507",
            "nameEL": "ΔΗΜΟΣ ΚΑΙΣΑΡΙΑΝΗΣ",
            "nameEN": "Kaisariani Municipality",
            "level": 5,
            "parentCode": "35145",
            "latitude": 37.9598209,
            "longitude": 23.7976203,
            "createdAt": "2026-02-23T12:36:12.177Z",
            "updatedAt": "2026-03-13T11:02:34.906Z",
            "children": []
          },
          {
            "id": "cmlz5uf7y00e5xxfkekrkgx2d",
            "code": "3514508",
            "nameEL": "ΔΗΜΟΣ ΦΙΛΑΔΕΛΦΕΙΑΣ - ΧΑΛΚΗΔΟΝΟΣ",
            "nameEN": "Municipality of Philadelphia - Chalkidona",
            "level": 5,
            "parentCode": "35145",
            "latitude": 38.0377392,
            "longitude": 23.7384402,
            "createdAt": "2026-02-23T12:36:12.814Z",
            "updatedAt": "2026-03-13T11:02:35.740Z",
            "children": []
          }
        ]
      },
      {
        "id": "cmlz5vbwt00hbxxfka48pb0xf",
        "code": "35152",
        "nameEL": "ΠΕΡΙΦΕΡΕΙΑΚΗ ΕΝΟΤΗΤΑ ΝΗΣΩΝ",
        "nameEN": "Regional Unit of Islands",
        "level": 4,
        "parentCode": "351",
        "latitude": 37.5791209,
        "longitude": 23.3994554,
        "createdAt": "2026-02-23T12:36:55.103Z",
        "updatedAt": "2026-03-13T11:03:28.564Z",
        "children": [
          {
            "id": "cmlz5vmyf00hhxxfkz28ots93",
            "code": "3515203",
            "nameEL": "ΔΗΜΟΣ ΑΓΚΙΣΤΡΙΟΥ",
            "nameEN": "Municipality of Agkistri",
            "level": 5,
            "parentCode": "35152",
            "latitude": 37.6937039,
            "longitude": 23.3500523,
            "createdAt": "2026-02-23T12:37:09.496Z",
            "updatedAt": "2026-03-13T11:03:31.314Z",
            "children": []
          },
          {
            "id": "cmlz5vnfr00hjxxfkh5b3v0fm",
            "code": "3515204",
            "nameEL": "ΔΗΜΟΣ ΑΙΓΙΝΑΣ",
            "nameEN": "Municipality of Aegina",
            "level": 5,
            "parentCode": "35152",
            "latitude": 37.7243694,
            "longitude": 23.4938109,
            "createdAt": "2026-02-23T12:37:10.119Z",
            "updatedAt": "2026-03-13T11:03:32.247Z",
            "children": []
          },
          {
            "id": "cmlz5vnyo00hlxxfkobrpz25m",
            "code": "3515205",
            "nameEL": "ΔΗΜΟΣ ΚΥΘΗΡΩΝ",
            "nameEN": "Municipality of Kythira",
            "level": 5,
            "parentCode": "35152",
            "latitude": 36.2580288,
            "longitude": 23.0024352,
            "createdAt": "2026-02-23T12:37:10.694Z",
            "updatedAt": "2026-03-13T11:03:33.271Z",
            "children": []
          },
          {
            "id": "cmlz5voay00hnxxfksiuakh8o",
            "code": "3515206",
            "nameEL": "ΔΗΜΟΣ ΠΟΡΟΥ",
            "nameEN": "Municipality of Poros",
            "level": 5,
            "parentCode": "35152",
            "latitude": 37.5269211,
            "longitude": 23.4752454,
            "createdAt": "2026-02-23T12:37:11.242Z",
            "updatedAt": "2026-03-13T11:03:34.260Z",
            "children": []
          },
          {
            "id": "cmlz5vm1e00hdxxfkvndqgtnc",
            "code": "3515201",
            "nameEL": "ΔΗΜΟΣ ΣΑΛΑΜΙΝΟΣ",
            "nameEN": "Municipality of Salamina",
            "level": 5,
            "parentCode": "35152",
            "latitude": 38.0823789,
            "longitude": 23.7324707,
            "createdAt": "2026-02-23T12:37:08.306Z",
            "updatedAt": "2026-03-13T11:03:29.533Z",
            "children": []
          },
          {
            "id": "cmlz5vonr00hpxxfk0sl02re4",
            "code": "3515207",
            "nameEL": "ΔΗΜΟΣ ΣΠΕΤΣΩΝ",
            "nameEN": "Spetses Municipality",
            "level": 5,
            "parentCode": "35152",
            "latitude": 37.2586958,
            "longitude": 23.1397191,
            "createdAt": "2026-02-23T12:37:11.703Z",
            "updatedAt": "2026-03-13T11:03:35.236Z",
            "children": []
          },
          {
            "id": "cmlz5vp1y00hrxxfko6dymrel",
            "code": "3515208",
            "nameEL": "ΔΗΜΟΣ ΤΡΟΙΖΗΝΙΑΣ",
            "nameEN": "Municipality of Troizinia",
            "level": 5,
            "parentCode": "35152",
            "latitude": 37.5487535,
            "longitude": 23.2264385,
            "createdAt": "2026-02-23T12:37:12.214Z",
            "updatedAt": "2026-03-13T11:03:36.188Z",
            "children": []
          },
          {
            "id": "cmlz5vmh800hfxxfksathkob4",
            "code": "3515202",
            "nameEL": "ΔΗΜΟΣ ΎΔΡΑΣ",
            "nameEN": "Municipality of Hydra",
            "level": 5,
            "parentCode": "35152",
            "latitude": 37.3321076,
            "longitude": 23.4664237,
            "createdAt": "2026-02-23T12:37:08.877Z",
            "updatedAt": "2026-03-13T11:03:30.426Z",
            "children": []
          }
        ]
      },
      {
        "id": "cmlz5umaq00fdxxfkpeeaqw4f",
        "code": "35148",
        "nameEL": "ΠΕΡΙΦΕΡΕΙΑΚΗ ΕΝΟΤΗΤΑ ΝΟΤΙΟΥ ΤΟΜΕΑ ΑΘΗΝΩΝ",
        "nameEN": "South Athens Regional Unit",
        "level": 4,
        "parentCode": "351",
        "latitude": 37.909898,
        "longitude": 23.725714,
        "createdAt": "2026-02-23T12:36:21.987Z",
        "updatedAt": "2026-03-13T11:02:56.025Z",
        "children": [
          {
            "id": "cmlz5umu400fhxxfk1h6qj3cn",
            "code": "3514802",
            "nameEL": "ΔΗΜΟΣ ΑΓΙΟΥ ΔΗΜΗΤΡΙΟΥ",
            "nameEN": "Municipality of Agios Dimitrios",
            "level": 5,
            "parentCode": "35148",
            "latitude": 37.9340413,
            "longitude": 23.7307617,
            "createdAt": "2026-02-23T12:36:22.684Z",
            "updatedAt": "2026-03-13T11:02:57.785Z",
            "children": []
          },
          {
            "id": "cmlz5un4b00fjxxfkvht7gji7",
            "code": "3514803",
            "nameEL": "ΔΗΜΟΣ ΑΛΙΜΟΥ",
            "nameEN": "Municipality of Alimos",
            "level": 5,
            "parentCode": "35148",
            "latitude": 37.9110466,
            "longitude": 23.7214827,
            "createdAt": "2026-02-23T12:36:23.051Z",
            "updatedAt": "2026-03-13T11:02:58.701Z",
            "children": []
          },
          {
            "id": "cmlz5unfr00flxxfkrndxj5ts",
            "code": "3514804",
            "nameEL": "ΔΗΜΟΣ ΓΛΥΦΑΔΑΣ",
            "nameEN": "Glyfada Municipality",
            "level": 5,
            "parentCode": "35148",
            "latitude": 37.8829987,
            "longitude": 23.767983,
            "createdAt": "2026-02-23T12:36:23.464Z",
            "updatedAt": "2026-03-13T11:02:59.648Z",
            "children": []
          },
          {
            "id": "cmlz5unrv00fnxxfkqr4643o7",
            "code": "3514805",
            "nameEL": "ΔΗΜΟΣ ΕΛΛΗΝΙΚΟΥ - ΑΡΓΥΡΟΥΠΟΛΗΣ",
            "nameEN": "Municipality of Elliniko-Argyroupoli",
            "level": 5,
            "parentCode": "35148",
            "latitude": 37.8979957,
            "longitude": 23.7407311,
            "createdAt": "2026-02-23T12:36:23.899Z",
            "updatedAt": "2026-03-13T11:03:00.537Z",
            "children": []
          },
          {
            "id": "cmlz5umjj00ffxxfkguftbaut",
            "code": "3514801",
            "nameEL": "ΔΗΜΟΣ ΚΑΛΛΙΘΕΑΣ",
            "nameEN": "Municipality of Kallithea",
            "level": 5,
            "parentCode": "35148",
            "latitude": 37.9497871,
            "longitude": 23.6969085,
            "createdAt": "2026-02-23T12:36:22.303Z",
            "updatedAt": "2026-03-13T11:02:56.944Z",
            "children": []
          },
          {
            "id": "cmlz5uo5700fpxxfkiyn343eh",
            "code": "3514806",
            "nameEL": "ΔΗΜΟΣ ΜΟΣΧΑΤΟΥ - ΤΑΥΡΟΥ",
            "nameEN": "Municipality of Moschato - Tavros",
            "level": 5,
            "parentCode": "35148",
            "latitude": 37.9578312,
            "longitude": 23.6878399,
            "createdAt": "2026-02-23T12:36:24.379Z",
            "updatedAt": "2026-03-13T11:03:01.456Z",
            "children": []
          },
          {
            "id": "cmlz5uoft00frxxfkv3d467aq",
            "code": "3514807",
            "nameEL": "ΔΗΜΟΣ ΝΕΑΣ ΣΜΥΡΝΗΣ",
            "nameEN": "Municipality of Nea Smyrni",
            "level": 5,
            "parentCode": "35148",
            "latitude": 37.942826,
            "longitude": 23.7142034,
            "createdAt": "2026-02-23T12:36:24.761Z",
            "updatedAt": "2026-03-13T11:03:02.537Z",
            "children": []
          },
          {
            "id": "cmlz5uosg00ftxxfk7866tbz6",
            "code": "3514808",
            "nameEL": "ΔΗΜΟΣ ΠΑΛΑΙΟΥ ΦΑΛΗΡΟΥ",
            "nameEN": "Municipality of Palaio Faliro",
            "level": 5,
            "parentCode": "35148",
            "latitude": 37.9302446,
            "longitude": 23.7002395,
            "createdAt": "2026-02-23T12:36:25.217Z",
            "updatedAt": "2026-03-13T11:03:03.434Z",
            "children": []
          }
        ]
      },
      {
        "id": "cmlz5uvdy00gzxxfkj70ojcm1",
        "code": "35151",
        "nameEL": "ΠΕΡΙΦΕΡΕΙΑΚΗ ΕΝΟΤΗΤΑ ΠΕΙΡΑΙΩΣ",
        "nameEN": "Piraeus Regional Unit",
        "level": 4,
        "parentCode": "351",
        "latitude": 37.9329775,
        "longitude": 23.6184693,
        "createdAt": "2026-02-23T12:36:33.766Z",
        "updatedAt": "2026-03-13T11:03:22.785Z",
        "children": [
          {
            "id": "cmlz5uvxy00h3xxfk3i677vaz",
            "code": "3515102",
            "nameEL": "ΔΗΜΟΣ ΚΕΡΑΤΣΙΝΙΟΥ - ΔΡΑΠΕΤΣΩΝΑΣ",
            "nameEN": "Municipality of Keratsini-Drapetsona",
            "level": 5,
            "parentCode": "35151",
            "latitude": 37.9663867,
            "longitude": 23.6181907,
            "createdAt": "2026-02-23T12:36:34.486Z",
            "updatedAt": "2026-03-13T11:03:24.717Z",
            "children": []
          },
          {
            "id": "cmlz5uwev00h5xxfk7q92ruob",
            "code": "3515103",
            "nameEL": "ΔΗΜΟΣ ΚΟΡΥΔΑΛΛΟΥ",
            "nameEN": "Municipality of Korydallos",
            "level": 5,
            "parentCode": "35151",
            "latitude": 37.9871437,
            "longitude": 23.6451376,
            "createdAt": "2026-02-23T12:36:34.999Z",
            "updatedAt": "2026-03-13T11:03:25.547Z",
            "children": []
          },
          {
            "id": "cmlz5uwn400h7xxfk91t5c0vj",
            "code": "3515104",
            "nameEL": "ΔΗΜΟΣ ΝΙΚΑΙΑΣ - ΑΓΙΟΥ ΙΩΑΝΝΗ ΡΕΝΤΗ",
            "nameEN": "Municipality of Nikaia - Agios Ioannis Rentis",
            "level": 5,
            "parentCode": "35151",
            "latitude": 37.9747012,
            "longitude": 23.6708731,
            "createdAt": "2026-02-23T12:36:35.392Z",
            "updatedAt": "2026-03-13T11:03:26.429Z",
            "children": []
          },
          {
            "id": "cmlz5uvnv00h1xxfk7kfenofq",
            "code": "3515101",
            "nameEL": "ΔΗΜΟΣ ΠΕΙΡΑΙΩΣ",
            "nameEN": "Piraeus Municipality",
            "level": 5,
            "parentCode": "35151",
            "latitude": 37.946168,
            "longitude": 23.6559476,
            "createdAt": "2026-02-23T12:36:34.124Z",
            "updatedAt": "2026-03-13T11:03:23.771Z",
            "children": []
          },
          {
            "id": "cmlz5uwxh00h9xxfkxz5o9zgw",
            "code": "3515105",
            "nameEL": "ΔΗΜΟΣ ΠΕΡΑΜΑΤΟΣ",
            "nameEN": "Perama Municipality",
            "level": 5,
            "parentCode": "35151",
            "latitude": 37.9733737,
            "longitude": 23.5770857,
            "createdAt": "2026-02-23T12:36:35.765Z",
            "updatedAt": "2026-03-13T11:03:27.391Z",
            "children": []
          }
        ]
      }
    ]
  },
  {
    "id": "cmlz5vpfr00htxxfkgbdlhmmi",
    "code": "461",
    "nameEL": "ΠΕΡΙΦΕΡΕΙΑ ΒΟΡΕΙΟΥ ΑΙΓΑΙΟΥ",
    "nameEN": "North Aegean Region",
    "level": 3,
    "parentCode": null,
    "latitude": 37.6610479,
    "longitude": 26.4674349,
    "createdAt": "2026-02-23T12:37:12.711Z",
    "updatedAt": "2026-03-13T11:03:37.081Z",
    "children": [
      {
        "id": "cmlz5vqjw00hzxxfkflbvmrml",
        "code": "46154",
        "nameEL": "ΠΕΡΙΦΕΡΕΙΑΚΗ ΕΝΟΤΗΤΑ ΙΚΑΡΙΑΣ",
        "nameEN": "Ikaria Regional Unit",
        "level": 4,
        "parentCode": "461",
        "latitude": 37.599868,
        "longitude": 26.2892215,
        "createdAt": "2026-02-23T12:37:14.157Z",
        "updatedAt": "2026-03-13T11:03:39.737Z",
        "children": [
          {
            "id": "cmlz5vqz000i1xxfkt3p639rh",
            "code": "4615401",
            "nameEL": "ΔΗΜΟΣ ΙΚΑΡΙΑΣ",
            "nameEN": "Municipality of Ikaria",
            "level": 5,
            "parentCode": "46154",
            "latitude": 37.5999295,
            "longitude": 26.1516894,
            "createdAt": "2026-02-23T12:37:14.701Z",
            "updatedAt": "2026-03-13T11:03:40.748Z",
            "children": []
          },
          {
            "id": "cmlz5vrd000i3xxfk9upsnpxt",
            "code": "4615402",
            "nameEL": "ΔΗΜΟΣ ΦΟΥΡΝΩΝ ΚΟΡΣΕΩΝ",
            "nameEN": "Municipality of Fournoi Korseon",
            "level": 5,
            "parentCode": "46154",
            "latitude": 37.582959,
            "longitude": 26.4294106,
            "createdAt": "2026-02-23T12:37:15.204Z",
            "updatedAt": "2026-03-13T11:03:41.639Z",
            "children": []
          }
        ]
      },
      {
        "id": "cmlz5vpts00hvxxfkwjgyosyc",
        "code": "46153",
        "nameEL": "ΠΕΡΙΦΕΡΕΙΑΚΗ ΕΝΟΤΗΤΑ ΛΕΣΒΟΥ",
        "nameEN": "Lesbos Regional Unit",
        "level": 4,
        "parentCode": "461",
        "latitude": 39.1604547,
        "longitude": 26.18952,
        "createdAt": "2026-02-23T12:37:13.216Z",
        "updatedAt": "2026-03-13T11:03:37.975Z",
        "children": [
          {
            "id": "cmlz5vq7g00hxxxfk26qlmlu5",
            "code": "4615301",
            "nameEL": "ΔΗΜΟΣ ΛΕΣΒΟΥ",
            "nameEN": "Municipality of Lesvos",
            "level": 5,
            "parentCode": "46153",
            "latitude": 39.106904,
            "longitude": 26.5573087,
            "createdAt": "2026-02-23T12:37:13.708Z",
            "updatedAt": "2026-03-13T11:03:38.858Z",
            "children": []
          }
        ]
      },
      {
        "id": "cmlz5vruk00i5xxfk1lag88c3",
        "code": "46155",
        "nameEL": "ΠΕΡΙΦΕΡΕΙΑΚΗ ΕΝΟΤΗΤΑ ΛΗΜΝΟΥ",
        "nameEN": "Lemnos Regional Unit",
        "level": 4,
        "parentCode": "461",
        "latitude": 39.9086392,
        "longitude": 25.2196267,
        "createdAt": "2026-02-23T12:37:15.836Z",
        "updatedAt": "2026-03-13T11:03:42.716Z",
        "children": [
          {
            "id": "cmlz5vshm00i9xxfkvoc5dctn",
            "code": "4615502",
            "nameEL": "ΔΗΜΟΣ ΑΓΙΟΥ ΕΥΣΤΡΑΤΙΟΥ",
            "nameEN": "Municipality of Agios Efstratios",
            "level": 5,
            "parentCode": "46155",
            "latitude": 39.5122717,
            "longitude": 25.0062338,
            "createdAt": "2026-02-23T12:37:16.666Z",
            "updatedAt": "2026-03-13T11:03:44.624Z",
            "children": []
          },
          {
            "id": "cmlz5vs7d00i7xxfkw1vj3gsi",
            "code": "4615501",
            "nameEL": "ΔΗΜΟΣ ΛΗΜΝΟΥ",
            "nameEN": "Municipality of Lemnos",
            "level": 5,
            "parentCode": "46155",
            "latitude": 39.9088688,
            "longitude": 25.1499608,
            "createdAt": "2026-02-23T12:37:16.297Z",
            "updatedAt": "2026-03-13T11:03:43.745Z",
            "children": []
          }
        ]
      },
      {
        "id": "cmlz5vsto00ibxxfkuj0vfp9p",
        "code": "46156",
        "nameEL": "ΠΕΡΙΦΕΡΕΙΑΚΗ ΕΝΟΤΗΤΑ ΣΑΜΟΥ",
        "nameEN": "Samos Regional Unit",
        "level": 4,
        "parentCode": "461",
        "latitude": 37.7222717,
        "longitude": 26.7940322,
        "createdAt": "2026-02-23T12:37:17.101Z",
        "updatedAt": "2026-03-13T11:03:45.474Z",
        "children": [
          {
            "id": "cmlz5vt3o00idxxfk6vdne8so",
            "code": "4615601",
            "nameEL": "ΔΗΜΟΣ ΣΑΜΟΥ",
            "nameEN": "Municipality of Samos",
            "level": 5,
            "parentCode": "46156",
            "latitude": 37.7693979,
            "longitude": 26.8551203,
            "createdAt": "2026-02-23T12:37:17.460Z",
            "updatedAt": "2026-03-13T11:03:46.359Z",
            "children": []
          }
        ]
      },
      {
        "id": "cmlz5w4qf00ifxxfky4ty1sjk",
        "code": "46157",
        "nameEL": "ΠΕΡΙΦΕΡΕΙΑΚΗ ΕΝΟΤΗΤΑ ΧΙΟΥ",
        "nameEN": "Chios Regional Unit",
        "level": 4,
        "parentCode": "461",
        "latitude": 38.3655874,
        "longitude": 26.037156,
        "createdAt": "2026-02-23T12:37:32.452Z",
        "updatedAt": "2026-03-13T11:03:47.296Z",
        "children": [
          {
            "id": "cmlz5wlrn00ijxxfk7jjqh12v",
            "code": "4615702",
            "nameEL": "ΔΗΜΟΣ ΟΙΝΟΥΣΣΩΝ",
            "nameEN": "Municipality of Oinousses",
            "level": 5,
            "parentCode": "46157",
            "latitude": 38.5235706,
            "longitude": 26.2274072,
            "createdAt": "2026-02-23T12:37:54.608Z",
            "updatedAt": "2026-03-13T11:03:49.084Z",
            "children": []
          },
          {
            "id": "cmlz5wjqt00ihxxfkxlxe34d6",
            "code": "4615701",
            "nameEL": "ΔΗΜΟΣ ΧΙΟΥ",
            "nameEN": "Municipality of Chios",
            "level": 5,
            "parentCode": "46157",
            "latitude": 38.3758132,
            "longitude": 26.0646552,
            "createdAt": "2026-02-23T12:37:51.929Z",
            "updatedAt": "2026-03-13T11:03:48.142Z",
            "children": []
          },
          {
            "id": "cmlz5wmxu00ilxxfk4tdcaepq",
            "code": "4615703",
            "nameEL": "ΔΗΜΟΣ ΨΑΡΩΝ",
            "nameEN": "Municipality of Psara",
            "level": 5,
            "parentCode": "46157",
            "latitude": 38.5707386,
            "longitude": 25.5855023,
            "createdAt": "2026-02-23T12:37:56.130Z",
            "updatedAt": "2026-03-13T11:03:50.014Z",
            "children": []
          }
        ]
      }
    ]
  },
  {
    "id": "cmlz5tcbn00alxxfkzeceyryo",
    "code": "242",
    "nameEL": "ΠΕΡΙΦΕΡΕΙΑ ΔΥΤΙΚΗΣ ΕΛΛΑΔΑΣ",
    "nameEN": "Region of Western Greece",
    "level": 3,
    "parentCode": null,
    "latitude": 38.2529473,
    "longitude": 21.7117625,
    "createdAt": "2026-02-23T12:35:22.403Z",
    "updatedAt": "2026-03-13T11:01:35.776Z",
    "children": [
      {
        "id": "cmlz5teha00azxxfkihk4u4o3",
        "code": "24238",
        "nameEL": "ΠΕΡΙΦΕΡΕΙΑΚΗ ΕΝΟΤΗΤΑ ΑΙΤΩΛΟΑΚΑΡΝΑΝΙΑΣ",
        "nameEN": "Regional Unit of Aetolia-Acarnania",
        "level": 4,
        "parentCode": "242",
        "latitude": 38.7033384,
        "longitude": 21.2490055,
        "createdAt": "2026-02-23T12:35:25.198Z",
        "updatedAt": "2026-03-13T11:01:42.125Z",
        "children": [
          {
            "id": "cmlz5tff200b5xxfkr0qwubgn",
            "code": "2423803",
            "nameEL": "ΔΗΜΟΣ ΑΓΡΙΝΙΟΥ",
            "nameEN": "Municipality of Agrinio",
            "level": 5,
            "parentCode": "24238",
            "latitude": 38.6469037,
            "longitude": 21.4486083,
            "createdAt": "2026-02-23T12:35:26.414Z",
            "updatedAt": "2026-03-13T11:01:44.696Z",
            "children": []
          },
          {
            "id": "cmlz5tf2p00b3xxfkawmt3qfy",
            "code": "2423802",
            "nameEL": "ΔΗΜΟΣ ΆΚΤΙΟΥ - ΒΟΝΙΤΣΑΣ",
            "nameEN": "Municipality of Aktio - Vonitsa",
            "level": 5,
            "parentCode": "24238",
            "latitude": 38.8190766,
            "longitude": 20.9366247,
            "createdAt": "2026-02-23T12:35:25.969Z",
            "updatedAt": "2026-03-13T11:01:43.763Z",
            "children": []
          },
          {
            "id": "cmlz5twvs00b7xxfkud49l5fm",
            "code": "2423804",
            "nameEL": "ΔΗΜΟΣ ΑΜΦΙΛΟΧΙΑΣ",
            "nameEN": "Municipality of Amfilochia",
            "level": 5,
            "parentCode": "24238",
            "latitude": 38.9640584,
            "longitude": 21.3294348,
            "createdAt": "2026-02-23T12:35:48.971Z",
            "updatedAt": "2026-03-13T11:01:45.657Z",
            "children": []
          },
          {
            "id": "cmlz5tx8e00b9xxfk3nkk49gg",
            "code": "2423805",
            "nameEL": "ΔΗΜΟΣ ΘΕΡΜΟΥ",
            "nameEN": "Municipality of Thermo",
            "level": 5,
            "parentCode": "24238",
            "latitude": 38.5831282,
            "longitude": 21.6572385,
            "createdAt": "2026-02-23T12:35:49.502Z",
            "updatedAt": "2026-03-13T11:01:46.611Z",
            "children": []
          },
          {
            "id": "cmlz5tess00b1xxfkazb5edtm",
            "code": "2423801",
            "nameEL": "ΔΗΜΟΣ ΙΕΡΑΣ ΠΟΛΗΣ ΜΕΣΟΛΟΓΓΙΟΥ",
            "nameEN": "Municipality of Mesolongi",
            "level": 5,
            "parentCode": "24238",
            "latitude": null,
            "longitude": null,
            "createdAt": "2026-02-23T12:35:25.612Z",
            "updatedAt": "2026-02-23T16:04:41.539Z",
            "children": []
          },
          {
            "id": "cmlz5txks00bbxxfkrnsa201g",
            "code": "2423806",
            "nameEL": "ΔΗΜΟΣ ΝΑΥΠΑΚΤΙΑΣ",
            "nameEN": "Municipality of Nafpaktia",
            "level": 5,
            "parentCode": "24238",
            "latitude": 38.5449472,
            "longitude": 21.870393,
            "createdAt": "2026-02-23T12:35:49.948Z",
            "updatedAt": "2026-03-13T11:01:47.528Z",
            "children": []
          },
          {
            "id": "cmlz5txy400bdxxfkgm7ddod7",
            "code": "2423807",
            "nameEL": "ΔΗΜΟΣ ΞΗΡΟΜΕΡΟΥ",
            "nameEN": "Xeromero Municipality",
            "level": 5,
            "parentCode": "24238",
            "latitude": 38.6043463,
            "longitude": 21.1174712,
            "createdAt": "2026-02-23T12:35:50.428Z",
            "updatedAt": "2026-03-13T11:01:48.443Z",
            "children": []
          }
        ]
      },
      {
        "id": "cmlz5tcn600anxxfkt2yt9bgg",
        "code": "24237",
        "nameEL": "ΠΕΡΙΦΕΡΕΙΑΚΗ ΕΝΟΤΗΤΑ ΑΧΑΪΑΣ",
        "nameEN": "Achaea Regional Unit",
        "level": 4,
        "parentCode": "242",
        "latitude": 38.0692748,
        "longitude": 21.8727304,
        "createdAt": "2026-02-23T12:35:22.818Z",
        "updatedAt": "2026-03-13T11:01:36.651Z",
        "children": [
          {
            "id": "cmlz5td7n00arxxfk01nsd48o",
            "code": "2423702",
            "nameEL": "ΔΗΜΟΣ ΑΙΓΙΑΛΕΙΑΣ",
            "nameEN": "Municipality of Aigialeia",
            "level": 5,
            "parentCode": "24237",
            "latitude": 38.140844,
            "longitude": 22.2517994,
            "createdAt": "2026-02-23T12:35:23.556Z",
            "updatedAt": "2026-03-13T11:01:38.395Z",
            "children": []
          },
          {
            "id": "cmlz5tdht00atxxfk1j644quq",
            "code": "2423703",
            "nameEL": "ΔΗΜΟΣ ΔΥΤΙΚΗΣ ΑΧΑΪΑΣ",
            "nameEN": "Municipality of West Achaea",
            "level": 5,
            "parentCode": "24237",
            "latitude": 38.0654267,
            "longitude": 21.5388845,
            "createdAt": "2026-02-23T12:35:23.922Z",
            "updatedAt": "2026-03-13T11:01:39.323Z",
            "children": []
          },
          {
            "id": "cmlz5tdum00avxxfk8b04xp5o",
            "code": "2423704",
            "nameEL": "ΔΗΜΟΣ ΕΡΥΜΑΝΘΟΥ",
            "nameEN": "Municipality of Erymanthos",
            "level": 5,
            "parentCode": "24237",
            "latitude": 38.0031622,
            "longitude": 21.7516144,
            "createdAt": "2026-02-23T12:35:24.382Z",
            "updatedAt": "2026-03-13T11:01:40.164Z",
            "children": []
          },
          {
            "id": "cmlz5te7u00axxxfkgjm9x8cr",
            "code": "2423705",
            "nameEL": "ΔΗΜΟΣ ΚΑΛΑΒΡΥΤΩΝ",
            "nameEN": "Municipality of Kalavryta",
            "level": 5,
            "parentCode": "24237",
            "latitude": 37.9650709,
            "longitude": 22.030159,
            "createdAt": "2026-02-23T12:35:24.859Z",
            "updatedAt": "2026-03-13T11:01:41.117Z",
            "children": []
          },
          {
            "id": "cmlz5tcwb00apxxfkid3l15sm",
            "code": "2423701",
            "nameEL": "ΔΗΜΟΣ ΠΑΤΡΕΩΝ",
            "nameEN": "Municipality of Patras",
            "level": 5,
            "parentCode": "24237",
            "latitude": 38.2280859,
            "longitude": 21.8009763,
            "createdAt": "2026-02-23T12:35:23.147Z",
            "updatedAt": "2026-03-13T11:01:37.499Z",
            "children": []
          }
        ]
      },
      {
        "id": "cmlz5tyny00bfxxfk5ldw6up9",
        "code": "24239",
        "nameEL": "ΠΕΡΙΦΕΡΕΙΑΚΗ ΕΝΟΤΗΤΑ ΗΛΕΙΑΣ",
        "nameEN": "Elis Regional Unit",
        "level": 4,
        "parentCode": "242",
        "latitude": 37.8057163,
        "longitude": 21.4152622,
        "createdAt": "2026-02-23T12:35:51.358Z",
        "updatedAt": "2026-03-13T11:01:49.399Z",
        "children": [
          {
            "id": "cmlz5tzyw00blxxfkasvrvs0a",
            "code": "2423903",
            "nameEL": "ΔΗΜΟΣ ΑΝΔΡΑΒΙΔΑΣ - ΚΥΛΛΗΝΗΣ",
            "nameEN": "Municipality of Andravida - Kyllini",
            "level": 5,
            "parentCode": "24239",
            "latitude": 37.979249,
            "longitude": 21.3513774,
            "createdAt": "2026-02-23T12:35:53.048Z",
            "updatedAt": "2026-03-13T11:01:52.175Z",
            "children": []
          },
          {
            "id": "cmlz5u0df00bnxxfkp0gvk0on",
            "code": "2423904",
            "nameEL": "ΔΗΜΟΣ ΑΝΔΡΙΤΣΑΙΝΑΣ - ΚΡΕΣΤΕΝΩΝ",
            "nameEN": "Municipality of Andritsaina - Krestena",
            "level": 5,
            "parentCode": "24239",
            "latitude": 37.5211202,
            "longitude": 21.8691554,
            "createdAt": "2026-02-23T12:35:53.571Z",
            "updatedAt": "2026-03-13T11:01:53.119Z",
            "children": []
          },
          {
            "id": "cmlz5u0rf00bpxxfkwl6swqct",
            "code": "2423905",
            "nameEL": "ΔΗΜΟΣ ΑΡΧΑΙΑΣ ΟΛΥΜΠΙΑΣ",
            "nameEN": "Municipality of Ancient Olympia",
            "level": 5,
            "parentCode": "24239",
            "latitude": 37.7713661,
            "longitude": 21.7434171,
            "createdAt": "2026-02-23T12:35:54.076Z",
            "updatedAt": "2026-03-13T11:01:54.124Z",
            "children": []
          },
          {
            "id": "cmlz5u12400brxxfk4suhj04h",
            "code": "2423906",
            "nameEL": "ΔΗΜΟΣ ΖΑΧΑΡΩΣ",
            "nameEN": "Municipality of Zacharo",
            "level": 5,
            "parentCode": "24239",
            "latitude": 37.4836375,
            "longitude": 21.6479171,
            "createdAt": "2026-02-23T12:35:54.460Z",
            "updatedAt": "2026-03-13T11:01:55.008Z",
            "children": []
          },
          {
            "id": "cmlz5tzd300bjxxfk7yoc2us6",
            "code": "2423902",
            "nameEL": "ΔΗΜΟΣ ΉΛΙΔΑΣ",
            "nameEN": "Municipality of Ilida",
            "level": 5,
            "parentCode": "24239",
            "latitude": 37.8234045,
            "longitude": 21.4034784,
            "createdAt": "2026-02-23T12:35:52.264Z",
            "updatedAt": "2026-03-13T11:01:51.166Z",
            "children": []
          },
          {
            "id": "cmlz5u1d700btxxfk1r8r02jq",
            "code": "2423907",
            "nameEL": "ΔΗΜΟΣ ΠΗΝΕΙΟΥ",
            "nameEN": "Municipality of Pineios",
            "level": 5,
            "parentCode": "24239",
            "latitude": 37.8633162,
            "longitude": 21.2341821,
            "createdAt": "2026-02-23T12:35:54.859Z",
            "updatedAt": "2026-03-13T11:01:55.923Z",
            "children": []
          },
          {
            "id": "cmlz5tz0300bhxxfk8vch26jc",
            "code": "2423901",
            "nameEL": "ΔΗΜΟΣ ΠΥΡΓΟΥ",
            "nameEN": "Municipality of Pyrgos",
            "level": 5,
            "parentCode": "24239",
            "latitude": 37.6722103,
            "longitude": 21.4392124,
            "createdAt": "2026-02-23T12:35:51.795Z",
            "updatedAt": "2026-03-13T11:01:50.283Z",
            "children": []
          }
        ]
      }
    ]
  },
  {
    "id": "cmlz5sd3l0047xxfk5am7tthc",
    "code": "121",
    "nameEL": "ΠΕΡΙΦΕΡΕΙΑ ΔΥΤΙΚΗΣ ΜΑΚΕΔΟΝΙΑΣ",
    "nameEN": "Region of Western Macedonia",
    "level": 3,
    "parentCode": null,
    "latitude": 40.3870919,
    "longitude": 21.4412445,
    "createdAt": "2026-02-23T12:34:36.753Z",
    "updatedAt": "2026-03-13T10:59:35.861Z",
    "children": [
      {
        "id": "cmlz5sf14004jxxfk5gty9hvl",
        "code": "12115",
        "nameEL": "ΠΕΡΙΦΕΡΕΙΑΚΗ ΕΝΟΤΗΤΑ ΓΡΕΒΕΝΩΝ",
        "nameEN": "Grevena Regional Unit",
        "level": 4,
        "parentCode": "121",
        "latitude": 40.0394926,
        "longitude": 21.4407746,
        "createdAt": "2026-02-23T12:34:39.257Z",
        "updatedAt": "2026-03-13T10:59:42.880Z",
        "children": [
          {
            "id": "cmlz5sfau004lxxfklmd5soi9",
            "code": "1211501",
            "nameEL": "ΔΗΜΟΣ ΓΡΕΒΕΝΩΝ",
            "nameEN": "Municipality of Grevena",
            "level": 5,
            "parentCode": "12115",
            "latitude": 40.0398084,
            "longitude": 21.4201389,
            "createdAt": "2026-02-23T12:34:39.607Z",
            "updatedAt": "2026-03-13T10:59:43.818Z",
            "children": []
          },
          {
            "id": "cmlz5sfnb004nxxfkkgiyzy2v",
            "code": "1211502",
            "nameEL": "ΔΗΜΟΣ ΔΕΣΚΑΤΗΣ",
            "nameEN": "Deskati Municipality",
            "level": 5,
            "parentCode": "12115",
            "latitude": 39.9775372,
            "longitude": 21.7411503,
            "createdAt": "2026-02-23T12:34:40.055Z",
            "updatedAt": "2026-03-13T10:59:44.762Z",
            "children": []
          }
        ]
      },
      {
        "id": "cmlz5sfxi004pxxfkhx5k2si7",
        "code": "12116",
        "nameEL": "ΠΕΡΙΦΕΡΕΙΑΚΗ ΕΝΟΤΗΤΑ ΚΑΣΤΟΡΙΑΣ",
        "nameEN": "Kastoria Regional Unit",
        "level": 4,
        "parentCode": "121",
        "latitude": 40.4474634,
        "longitude": 21.1474168,
        "createdAt": "2026-02-23T12:34:40.423Z",
        "updatedAt": "2026-03-13T10:59:45.718Z",
        "children": [
          {
            "id": "cmlz5sg83004rxxfk9d0s4sfn",
            "code": "1211601",
            "nameEL": "ΔΗΜΟΣ ΚΑΣΤΟΡΙΑΣ",
            "nameEN": "Municipality of Kastoria",
            "level": 5,
            "parentCode": "12116",
            "latitude": 40.5770335,
            "longitude": 21.2515889,
            "createdAt": "2026-02-23T12:34:40.803Z",
            "updatedAt": "2026-03-13T10:59:46.633Z",
            "children": []
          },
          {
            "id": "cmlz5sgfv004txxfke7pm01dh",
            "code": "1211602",
            "nameEL": "ΔΗΜΟΣ ΝΕΣΤΟΡΙΟΥ",
            "nameEN": "Municipality of Nestorio",
            "level": 5,
            "parentCode": "12116",
            "latitude": 40.3546464,
            "longitude": 20.9625046,
            "createdAt": "2026-02-23T12:34:41.083Z",
            "updatedAt": "2026-03-13T10:59:47.468Z",
            "children": []
          },
          {
            "id": "cmlz5sgqt004vxxfkbq7ug0g3",
            "code": "1211603",
            "nameEL": "ΔΗΜΟΣ ΟΡΕΣΤΙΔΟΣ",
            "nameEN": "Municipality of Orestida",
            "level": 5,
            "parentCode": "12116",
            "latitude": 40.405277,
            "longitude": 21.2158084,
            "createdAt": "2026-02-23T12:34:41.478Z",
            "updatedAt": "2026-03-13T10:59:48.444Z",
            "children": []
          }
        ]
      },
      {
        "id": "cmlz5sdii0049xxfklgo141i4",
        "code": "12114",
        "nameEL": "ΠΕΡΙΦΕΡΕΙΑΚΗ ΕΝΟΤΗΤΑ ΚΟΖΑΝΗΣ",
        "nameEN": "Kozani Regional Unit",
        "level": 4,
        "parentCode": "121",
        "latitude": 40.3311942,
        "longitude": 21.6077029,
        "createdAt": "2026-02-23T12:34:37.270Z",
        "updatedAt": "2026-03-13T10:59:36.773Z",
        "children": [
          {
            "id": "cmlz5se1f004dxxfkzxbmrb08",
            "code": "1211402",
            "nameEL": "ΔΗΜΟΣ ΒΟΪΟΥ",
            "nameEN": "Municipality of Voio",
            "level": 5,
            "parentCode": "12114",
            "latitude": 40.3004236,
            "longitude": 21.3477964,
            "createdAt": "2026-02-23T12:34:37.971Z",
            "updatedAt": "2026-03-13T10:59:38.562Z",
            "children": []
          },
          {
            "id": "cmlz5secv004fxxfkrl9h23r2",
            "code": "1211403",
            "nameEL": "ΔΗΜΟΣ ΕΟΡΔΑΙΑΣ",
            "nameEN": "Municipality of Eordaia",
            "level": 5,
            "parentCode": "12114",
            "latitude": 40.5358754,
            "longitude": 21.719602,
            "createdAt": "2026-02-23T12:34:38.384Z",
            "updatedAt": "2026-03-13T10:59:39.576Z",
            "children": []
          },
          {
            "id": "cmlz5sdsq004bxxfk1uoi4ni4",
            "code": "1211401",
            "nameEL": "ΔΗΜΟΣ ΚΟΖΑΝΗΣ",
            "nameEN": "Municipality of Kozani",
            "level": 5,
            "parentCode": "12114",
            "latitude": 40.2900183,
            "longitude": 21.7585633,
            "createdAt": "2026-02-23T12:34:37.659Z",
            "updatedAt": "2026-03-13T10:59:37.677Z",
            "children": []
          },
          {
            "id": "cmlz5senl004hxxfkktucuvip",
            "code": "1211404",
            "nameEL": "ΔΗΜΟΣ ΣΕΡΒΙΩΝ - ΒΕΛΒΕΝΤΟΥ",
            "nameEN": "Municipality of Servia-Velventos",
            "level": 5,
            "parentCode": "12114",
            "latitude": null,
            "longitude": null,
            "createdAt": "2026-02-23T12:34:38.769Z",
            "updatedAt": "2026-02-23T15:28:18.758Z",
            "children": []
          }
        ]
      },
      {
        "id": "cmlz5sgyi004xxxfkj4x9s3ls",
        "code": "12117",
        "nameEL": "ΠΕΡΙΦΕΡΕΙΑΚΗ ΕΝΟΤΗΤΑ ΦΛΩΡΙΝΑΣ",
        "nameEN": "Florina Regional Unit",
        "level": 4,
        "parentCode": "121",
        "latitude": 40.7327112,
        "longitude": 21.5393679,
        "createdAt": "2026-02-23T12:34:41.754Z",
        "updatedAt": "2026-03-13T10:59:49.339Z",
        "children": [
          {
            "id": "cmlz5shom0051xxfkivxrk5kf",
            "code": "1211702",
            "nameEL": "ΔΗΜΟΣ ΑΜΥΝΤΑΙΟΥ",
            "nameEN": "Municipality of Amyntaio",
            "level": 5,
            "parentCode": "12117",
            "latitude": 40.6867626,
            "longitude": 21.67171,
            "createdAt": "2026-02-23T12:34:42.694Z",
            "updatedAt": "2026-03-13T10:59:51.096Z",
            "children": []
          },
          {
            "id": "cmlz5shzc0053xxfkk9oa2qqg",
            "code": "1211703",
            "nameEL": "ΔΗΜΟΣ ΠΡΕΣΠΩΝ",
            "nameEN": "Municipality of Prespes",
            "level": 5,
            "parentCode": "12117",
            "latitude": 40.7435495,
            "longitude": 21.1123164,
            "createdAt": "2026-02-23T12:34:43.080Z",
            "updatedAt": "2026-03-13T10:59:52.050Z",
            "children": []
          },
          {
            "id": "cmlz5shfm004zxxfkb0he2f33",
            "code": "1211701",
            "nameEL": "ΔΗΜΟΣ ΦΛΩΡΙΝΑΣ",
            "nameEN": "Municipality of Florina",
            "level": 5,
            "parentCode": "12117",
            "latitude": 40.7876067,
            "longitude": 21.458316,
            "createdAt": "2026-02-23T12:34:42.371Z",
            "updatedAt": "2026-03-13T10:59:50.220Z",
            "children": []
          }
        ]
      }
    ]
  },
  {
    "id": "cmlz5si8q0055xxfkd9wuqoh0",
    "code": "122",
    "nameEL": "ΠΕΡΙΦΕΡΕΙΑ ΗΠΕΙΡΟΥ",
    "nameEN": "Region of Epirus",
    "level": 3,
    "parentCode": null,
    "latitude": 39.6501917,
    "longitude": 20.6908456,
    "createdAt": "2026-02-23T12:34:43.419Z",
    "updatedAt": "2026-03-13T10:59:53.022Z",
    "children": [
      {
        "id": "cmlz5sl6p005pxxfkgfpfn25z",
        "code": "12219",
        "nameEL": "ΠΕΡΙΦΕΡΕΙΑΚΗ ΕΝΟΤΗΤΑ ΑΡΤΑΣ",
        "nameEN": "Regional Unit of Arta",
        "level": 4,
        "parentCode": "122",
        "latitude": 39.2505691,
        "longitude": 21.1285134,
        "createdAt": "2026-02-23T12:34:47.233Z",
        "updatedAt": "2026-03-13T11:00:03.727Z",
        "children": [
          {
            "id": "cmlz5slh7005rxxfk7uhf6nvs",
            "code": "1221901",
            "nameEL": "ΔΗΜΟΣ ΑΡΤΑΙΩΝ",
            "nameEN": "Municipality of Arta",
            "level": 5,
            "parentCode": "12219",
            "latitude": 39.2078581,
            "longitude": 20.9582964,
            "createdAt": "2026-02-23T12:34:47.612Z",
            "updatedAt": "2026-03-13T11:00:06.004Z",
            "children": []
          },
          {
            "id": "cmlz5sloo005txxfkblzri8ha",
            "code": "1221902",
            "nameEL": "ΔΗΜΟΣ ΓΕΩΡΓΙΟΥ ΚΑΡΑΪΣΚΑΚΗ",
            "nameEN": "Municipality of Georgios Karaiskakis",
            "level": 5,
            "parentCode": "12219",
            "latitude": 39.2293809,
            "longitude": 21.2406681,
            "createdAt": "2026-02-23T12:34:47.880Z",
            "updatedAt": "2026-03-13T11:00:07.009Z",
            "children": []
          },
          {
            "id": "cmlz5slxt005vxxfkqspjvij3",
            "code": "1221903",
            "nameEL": "ΔΗΜΟΣ ΚΕΝΤΡΙΚΩΝ ΤΖΟΥΜΕΡΚΩΝ",
            "nameEN": "Municipality of Central Tzoumerka",
            "level": 5,
            "parentCode": "12219",
            "latitude": 39.3886149,
            "longitude": 21.161438,
            "createdAt": "2026-02-23T12:34:48.210Z",
            "updatedAt": "2026-03-13T11:00:08.077Z",
            "children": []
          },
          {
            "id": "cmlz5smab005xxxfkgiyk9rn0",
            "code": "1221904",
            "nameEL": "ΔΗΜΟΣ ΝΙΚΟΛΑΟΥ ΣΚΟΥΦΑ",
            "nameEN": "Municipality of Nikolaos Skoufas",
            "level": 5,
            "parentCode": "12219",
            "latitude": 39.1410005,
            "longitude": 21.0759337,
            "createdAt": "2026-02-23T12:34:48.507Z",
            "updatedAt": "2026-03-13T11:00:09.493Z",
            "children": []
          }
        ]
      },
      {
        "id": "cmlz5smit005zxxfkd9limerh",
        "code": "12220",
        "nameEL": "ΠΕΡΙΦΕΡΕΙΑΚΗ ΕΝΟΤΗΤΑ ΘΕΣΠΡΩΤΙΑΣ",
        "nameEN": "Regional Unit of Thesprotia",
        "level": 4,
        "parentCode": "122",
        "latitude": 39.5440124,
        "longitude": 20.3083554,
        "createdAt": "2026-02-23T12:34:48.966Z",
        "updatedAt": "2026-03-13T11:00:11.089Z",
        "children": [
          {
            "id": "cmlz5smso0061xxfkgav94bmp",
            "code": "1222001",
            "nameEL": "ΔΗΜΟΣ ΗΓΟΥΜΕΝΙΤΣΑΣ",
            "nameEN": "Igoumenitsa",
            "level": 5,
            "parentCode": "12220",
            "latitude": 39.4243822,
            "longitude": 20.3229775,
            "createdAt": "2026-02-23T12:34:49.320Z",
            "updatedAt": "2026-03-13T11:00:12.060Z",
            "children": []
          },
          {
            "id": "cmlz5sn0e0063xxfk65avy0u4",
            "code": "1222002",
            "nameEL": "ΔΗΜΟΣ ΣΟΥΛΙΟΥ",
            "nameEN": "Municipality of Souli",
            "level": 5,
            "parentCode": "12220",
            "latitude": 39.4714086,
            "longitude": 20.4959632,
            "createdAt": "2026-02-23T12:34:49.598Z",
            "updatedAt": "2026-03-13T11:00:13.083Z",
            "children": []
          },
          {
            "id": "cmlz5sndm0065xxfk8hwpkpuh",
            "code": "1222003",
            "nameEL": "ΔΗΜΟΣ ΦΙΛΙΑΤΩΝ",
            "nameEN": "Municipality of Filiates",
            "level": 5,
            "parentCode": "12220",
            "latitude": 39.6659049,
            "longitude": 20.374487,
            "createdAt": "2026-02-23T12:34:50.075Z",
            "updatedAt": "2026-03-13T11:00:14.085Z",
            "children": []
          }
        ]
      },
      {
        "id": "cmlz5siih0057xxfkzskr2stp",
        "code": "12218",
        "nameEL": "ΠΕΡΙΦΕΡΕΙΑΚΗ ΕΝΟΤΗΤΑ ΙΩΑΝΝΙΝΩΝ",
        "nameEN": "Ioannina Regional Unit",
        "level": 4,
        "parentCode": "122",
        "latitude": 39.8288246,
        "longitude": 20.8385878,
        "createdAt": "2026-02-23T12:34:43.770Z",
        "updatedAt": "2026-03-13T10:59:54.202Z",
        "children": [
          {
            "id": "cmlz5sj4d005bxxfkw4cqp8gx",
            "code": "1221802",
            "nameEL": "ΔΗΜΟΣ ΒΟΡΕΙΩΝ ΤΖΟΥΜΕΡΚΩΝ",
            "nameEN": "Municipality of North Tzoumerka",
            "level": 5,
            "parentCode": "12218",
            "latitude": 39.5389957,
            "longitude": 21.0370144,
            "createdAt": "2026-02-23T12:34:44.557Z",
            "updatedAt": "2026-03-13T10:59:55.985Z",
            "children": []
          },
          {
            "id": "cmlz5sjge005dxxfkyl34uuub",
            "code": "1221803",
            "nameEL": "ΔΗΜΟΣ ΔΩΔΩΝΗΣ",
            "nameEN": "Municipality of Dodoni",
            "level": 5,
            "parentCode": "12218",
            "latitude": 39.4532073,
            "longitude": 20.7970403,
            "createdAt": "2026-02-23T12:34:44.990Z",
            "updatedAt": "2026-03-13T10:59:56.868Z",
            "children": []
          },
          {
            "id": "cmlz5sjof005fxxfko1sejdv2",
            "code": "1221804",
            "nameEL": "ΔΗΜΟΣ ΖΑΓΟΡΙΟΥ",
            "nameEN": "Municipality of Zagori",
            "level": 5,
            "parentCode": "12218",
            "latitude": 39.8648762,
            "longitude": 20.8812803,
            "createdAt": "2026-02-23T12:34:45.279Z",
            "updatedAt": "2026-03-13T10:59:57.815Z",
            "children": []
          },
          {
            "id": "cmlz5sk0m005hxxfk5qkemdwu",
            "code": "1221805",
            "nameEL": "ΔΗΜΟΣ ΖΙΤΣΑΣ",
            "nameEN": "Municipality of Zitsa",
            "level": 5,
            "parentCode": "12218",
            "latitude": 39.7520691,
            "longitude": 20.6489231,
            "createdAt": "2026-02-23T12:34:45.718Z",
            "updatedAt": "2026-03-13T10:59:58.826Z",
            "children": []
          },
          {
            "id": "cmlz5sirw0059xxfknlayalpv",
            "code": "1221801",
            "nameEL": "ΔΗΜΟΣ ΙΩΑΝΝΙΤΩΝ",
            "nameEN": "Ioannina Municipality",
            "level": 5,
            "parentCode": "12218",
            "latitude": 39.6408417,
            "longitude": 20.8952909,
            "createdAt": "2026-02-23T12:34:44.109Z",
            "updatedAt": "2026-03-13T10:59:55.101Z",
            "children": []
          },
          {
            "id": "cmlz5sk9k005jxxfktxk6bwlg",
            "code": "1221806",
            "nameEL": "ΔΗΜΟΣ ΚΟΝΙΤΣΑΣ",
            "nameEN": "Municipality of Konitsa",
            "level": 5,
            "parentCode": "12218",
            "latitude": 40.1659804,
            "longitude": 20.8374129,
            "createdAt": "2026-02-23T12:34:46.040Z",
            "updatedAt": "2026-03-13T10:59:59.869Z",
            "children": []
          },
          {
            "id": "cmlz5skjd005lxxfktcm9v4ir",
            "code": "1221807",
            "nameEL": "ΔΗΜΟΣ ΜΕΤΣΟΒΟΥ",
            "nameEN": "Municipality of Metsovo",
            "level": 5,
            "parentCode": "12218",
            "latitude": 39.775404,
            "longitude": 21.1328389,
            "createdAt": "2026-02-23T12:34:46.394Z",
            "updatedAt": "2026-03-13T11:00:00.803Z",
            "children": []
          },
          {
            "id": "cmlz5skve005nxxfkwlpf2gbs",
            "code": "1221808",
            "nameEL": "ΔΗΜΟΣ ΠΩΓΩΝΙΟΥ",
            "nameEN": "Municipality of Pogonio",
            "level": 5,
            "parentCode": "12218",
            "latitude": 39.9192841,
            "longitude": 20.4755885,
            "createdAt": "2026-02-23T12:34:46.827Z",
            "updatedAt": "2026-03-13T11:00:02.328Z",
            "children": []
          }
        ]
      },
      {
        "id": "cmlz5snsl0067xxfkcneir8lt",
        "code": "12221",
        "nameEL": "ΠΕΡΙΦΕΡΕΙΑΚΗ ΕΝΟΤΗΤΑ ΠΡΕΒΕΖΑΣ",
        "nameEN": "PREFECTURE OF PREVEZA",
        "level": 4,
        "parentCode": "122",
        "latitude": 39.1652087,
        "longitude": 20.6217734,
        "createdAt": "2026-02-23T12:34:50.613Z",
        "updatedAt": "2026-03-13T11:00:15.053Z",
        "children": [
          {
            "id": "cmlz5soct006bxxfkkzabb1yd",
            "code": "1222102",
            "nameEL": "ΔΗΜΟΣ ΖΗΡΟΥ",
            "nameEN": "Municipality of Ziros",
            "level": 5,
            "parentCode": "12221",
            "latitude": 39.2686015,
            "longitude": 20.8139449,
            "createdAt": "2026-02-23T12:34:51.341Z",
            "updatedAt": "2026-03-13T11:00:16.958Z",
            "children": []
          },
          {
            "id": "cmlz5sol9006dxxfkpk1n08cg",
            "code": "1222103",
            "nameEL": "ΔΗΜΟΣ ΠΑΡΓΑΣ",
            "nameEN": "Municipality of Parga",
            "level": 5,
            "parentCode": "12221",
            "latitude": 39.2526452,
            "longitude": 20.5686147,
            "createdAt": "2026-02-23T12:34:51.646Z",
            "updatedAt": "2026-03-13T11:00:17.919Z",
            "children": []
          },
          {
            "id": "cmlz5so390069xxfkolzjsvo5",
            "code": "1222101",
            "nameEL": "ΔΗΜΟΣ ΠΡΕΒΕΖΑΣ",
            "nameEN": "Municipality of Preveza",
            "level": 5,
            "parentCode": "12221",
            "latitude": 39.1422454,
            "longitude": 20.690378,
            "createdAt": "2026-02-23T12:34:50.997Z",
            "updatedAt": "2026-03-13T11:00:15.960Z",
            "children": []
          }
        ]
      }
    ]
  },
  {
    "id": "cmlz5souv006fxxfkbuaqh58q",
    "code": "231",
    "nameEL": "ΠΕΡΙΦΕΡΕΙΑ ΘΕΣΣΑΛΙΑΣ",
    "nameEN": "Thessaly Region",
    "level": 3,
    "parentCode": null,
    "latitude": 39.5755929,
    "longitude": 22.1634449,
    "createdAt": "2026-02-23T12:34:51.992Z",
    "updatedAt": "2026-03-13T11:00:18.941Z",
    "children": [
      {
        "id": "cmlz5srgm006xxxfk6zxdzw4w",
        "code": "23123",
        "nameEL": "ΠΕΡΙΦΕΡΕΙΑΚΗ ΕΝΟΤΗΤΑ ΚΑΡΔΙΤΣΑΣ",
        "nameEN": "Karditsa Regional Unit",
        "level": 4,
        "parentCode": "231",
        "latitude": 39.2901506,
        "longitude": 21.8275048,
        "createdAt": "2026-02-23T12:34:55.367Z",
        "updatedAt": "2026-03-13T11:00:32.542Z",
        "children": [
          {
            "id": "cmlz5ss2i0071xxfkxlmv1jf2",
            "code": "2312302",
            "nameEL": "ΔΗΜΟΣ ΑΡΓΙΘΕΑΣ",
            "nameEN": "Municipality of Argithea",
            "level": 5,
            "parentCode": "23123",
            "latitude": 39.2903174,
            "longitude": 21.5316157,
            "createdAt": "2026-02-23T12:34:56.155Z",
            "updatedAt": "2026-03-13T11:00:34.527Z",
            "children": []
          },
          {
            "id": "cmlz5srrt006zxxfkyofm7czm",
            "code": "2312301",
            "nameEL": "ΔΗΜΟΣ ΚΑΡΔΙΤΣΑΣ",
            "nameEN": "Municipality of Karditsa",
            "level": 5,
            "parentCode": "23123",
            "latitude": 39.2838892,
            "longitude": 21.9001818,
            "createdAt": "2026-02-23T12:34:55.769Z",
            "updatedAt": "2026-03-13T11:00:33.546Z",
            "children": []
          },
          {
            "id": "cmlz5ssde0073xxfk1gk27jrm",
            "code": "2312303",
            "nameEL": "ΔΗΜΟΣ ΛΙΜΝΗΣ ΠΛΑΣΤΗΡΑ",
            "nameEN": "Municipality of Lake Plastiras",
            "level": 5,
            "parentCode": "23123",
            "latitude": 39.3009426,
            "longitude": 21.7132267,
            "createdAt": "2026-02-23T12:34:56.546Z",
            "updatedAt": "2026-03-13T11:00:35.482Z",
            "children": []
          },
          {
            "id": "cmlz5ssmz0075xxfkgqsodgr4",
            "code": "2312304",
            "nameEL": "ΔΗΜΟΣ ΜΟΥΖΑΚΙΟΥ",
            "nameEN": "Municipality of Mouzaki",
            "level": 5,
            "parentCode": "23123",
            "latitude": 39.413234,
            "longitude": 21.7081839,
            "createdAt": "2026-02-23T12:34:56.892Z",
            "updatedAt": "2026-03-13T11:00:36.472Z",
            "children": []
          },
          {
            "id": "cmlz5ssxx0077xxfk6bbwz986",
            "code": "2312305",
            "nameEL": "ΔΗΜΟΣ ΠΑΛΑΜΑ",
            "nameEN": "Municipality of Palamas",
            "level": 5,
            "parentCode": "23123",
            "latitude": 39.4614371,
            "longitude": 22.1148268,
            "createdAt": "2026-02-23T12:34:57.285Z",
            "updatedAt": "2026-03-13T11:00:37.404Z",
            "children": []
          },
          {
            "id": "cmlz5st950079xxfk9lg51lsi",
            "code": "2312306",
            "nameEL": "ΔΗΜΟΣ ΣΟΦΑΔΩΝ",
            "nameEN": "Municipality of Sofades",
            "level": 5,
            "parentCode": "23123",
            "latitude": 39.2367989,
            "longitude": 22.1202424,
            "createdAt": "2026-02-23T12:34:57.690Z",
            "updatedAt": "2026-03-13T11:00:38.298Z",
            "children": []
          }
        ]
      },
      {
        "id": "cmlz5sp7k006hxxfk18gd8lxj",
        "code": "23122",
        "nameEL": "ΠΕΡΙΦΕΡΕΙΑΚΗ ΕΝΟΤΗΤΑ ΛΑΡΙΣΑΣ",
        "nameEN": "Larisa Regional Unit",
        "level": 4,
        "parentCode": "231",
        "latitude": 39.6638947,
        "longitude": 22.5377466,
        "createdAt": "2026-02-23T12:34:52.448Z",
        "updatedAt": "2026-03-13T11:00:20.103Z",
        "children": [
          {
            "id": "cmlz5spq7006lxxfk1mx6vau7",
            "code": "2312202",
            "nameEL": "ΔΗΜΟΣ ΑΓΙΑΣ",
            "nameEN": "Municipality of Agia",
            "level": 5,
            "parentCode": "23122",
            "latitude": 39.7201683,
            "longitude": 22.7285839,
            "createdAt": "2026-02-23T12:34:53.119Z",
            "updatedAt": "2026-03-13T11:00:22.205Z",
            "children": []
          },
          {
            "id": "cmlz5sq1j006nxxfkpcp5m12c",
            "code": "2312203",
            "nameEL": "ΔΗΜΟΣ ΕΛΑΣΣΟΝΑΣ",
            "nameEN": "Municipality of Elassona",
            "level": 5,
            "parentCode": "23122",
            "latitude": 39.8946279,
            "longitude": 22.188631,
            "createdAt": "2026-02-23T12:34:53.527Z",
            "updatedAt": "2026-03-13T11:00:23.611Z",
            "children": []
          },
          {
            "id": "cmlz5sqc5006pxxfka1ij6ut0",
            "code": "2312204",
            "nameEL": "ΔΗΜΟΣ ΚΙΛΕΛΕΡ",
            "nameEN": "Municipality of Kileler",
            "level": 5,
            "parentCode": "23122",
            "latitude": 39.5473618,
            "longitude": 22.5608997,
            "createdAt": "2026-02-23T12:34:53.909Z",
            "updatedAt": "2026-03-13T11:00:27.166Z",
            "children": []
          },
          {
            "id": "cmlz5spiw006jxxfk6p1r0tp8",
            "code": "2312201",
            "nameEL": "ΔΗΜΟΣ ΛΑΡΙΣΑΙΩΝ",
            "nameEN": "Municipality of Larissa",
            "level": 5,
            "parentCode": "23122",
            "latitude": 39.6285568,
            "longitude": 22.3340621,
            "createdAt": "2026-02-23T12:34:52.856Z",
            "updatedAt": "2026-03-13T11:00:21.150Z",
            "children": []
          },
          {
            "id": "cmlz5sqmy006rxxfkqtxb86rg",
            "code": "2312205",
            "nameEL": "ΔΗΜΟΣ ΤΕΜΠΩΝ",
            "nameEN": "Municipality of Tempi",
            "level": 5,
            "parentCode": "23122",
            "latitude": 39.8318585,
            "longitude": 22.5648982,
            "createdAt": "2026-02-23T12:34:54.299Z",
            "updatedAt": "2026-03-13T11:00:28.908Z",
            "children": []
          },
          {
            "id": "cmlz5sqxe006txxfkn58j82qa",
            "code": "2312206",
            "nameEL": "ΔΗΜΟΣ ΤΥΡΝΑΒΟΥ",
            "nameEN": "Municipality of Tyrnavos",
            "level": 5,
            "parentCode": "23122",
            "latitude": 39.7388604,
            "longitude": 22.2882216,
            "createdAt": "2026-02-23T12:34:54.675Z",
            "updatedAt": "2026-03-13T11:00:30.484Z",
            "children": []
          },
          {
            "id": "cmlz5sr6t006vxxfkz4yfwywe",
            "code": "2312207",
            "nameEL": "ΔΗΜΟΣ ΦΑΡΣΑΛΩΝ",
            "nameEN": "Municipality of Farsala",
            "level": 5,
            "parentCode": "23122",
            "latitude": 39.2949611,
            "longitude": 22.384792,
            "createdAt": "2026-02-23T12:34:55.014Z",
            "updatedAt": "2026-03-13T11:00:31.401Z",
            "children": []
          }
        ]
      },
      {
        "id": "cmlz5stmz007bxxfkwplmpowi",
        "code": "23124",
        "nameEL": "ΠΕΡΙΦΕΡΕΙΑΚΗ ΕΝΟΤΗΤΑ ΜΑΓΝΗΣΙΑΣ",
        "nameEN": "Magnesia Regional Unit",
        "level": 4,
        "parentCode": "231",
        "latitude": 39.3013273,
        "longitude": 23.0216678,
        "createdAt": "2026-02-23T12:34:58.187Z",
        "updatedAt": "2026-03-13T11:00:39.178Z",
        "children": [
          {
            "id": "cmlz5su89007fxxfkqscmo9w1",
            "code": "2312402",
            "nameEL": "ΔΗΜΟΣ ΑΛΜΥΡΟΥ",
            "nameEN": "Municipality of Almyros",
            "level": 5,
            "parentCode": "23124",
            "latitude": 39.1278452,
            "longitude": 22.708633,
            "createdAt": "2026-02-23T12:34:58.953Z",
            "updatedAt": "2026-03-13T11:00:41.176Z",
            "children": []
          },
          {
            "id": "cmlz5stz2007dxxfkysncx60y",
            "code": "2312401",
            "nameEL": "ΔΗΜΟΣ ΒΟΛΟΥ",
            "nameEN": "Municipality of Volos",
            "level": 5,
            "parentCode": "23124",
            "latitude": 39.3624833,
            "longitude": 22.9401864,
            "createdAt": "2026-02-23T12:34:58.623Z",
            "updatedAt": "2026-03-13T11:00:40.200Z",
            "children": []
          },
          {
            "id": "cmlz5sujq007hxxfk5egfea2f",
            "code": "2312403",
            "nameEL": "ΔΗΜΟΣ ΖΑΓΟΡΑΣ - ΜΟΥΡΕΣΙΟΥ",
            "nameEN": "Municipality of Zagora - Mouresi",
            "level": 5,
            "parentCode": "23124",
            "latitude": 39.4380125,
            "longitude": 23.0899265,
            "createdAt": "2026-02-23T12:34:59.367Z",
            "updatedAt": "2026-03-13T11:00:42.122Z",
            "children": []
          },
          {
            "id": "cmlz5sutx007jxxfknddivy1f",
            "code": "2312404",
            "nameEL": "ΔΗΜΟΣ ΝΟΤΙΟΥ ΠΗΛΙΟΥ",
            "nameEN": "Municipality of South Pelion",
            "level": 5,
            "parentCode": "23124",
            "latitude": 39.2327331,
            "longitude": 23.2496873,
            "createdAt": "2026-02-23T12:34:59.734Z",
            "updatedAt": "2026-03-13T11:00:42.967Z",
            "children": []
          },
          {
            "id": "cmlz5sv37007lxxfkib2u24zp",
            "code": "2312405",
            "nameEL": "ΔΗΜΟΣ ΡΗΓΑ ΦΕΡΑΙΟΥ",
            "nameEN": "Municipality of Riga Fereos",
            "level": 5,
            "parentCode": "23124",
            "latitude": 39.4320025,
            "longitude": 22.7790501,
            "createdAt": "2026-02-23T12:35:00.067Z",
            "updatedAt": "2026-03-13T11:00:43.860Z",
            "children": []
          }
        ]
      },
      {
        "id": "cmlz5svdv007nxxfkjttlk4m0",
        "code": "23125",
        "nameEL": "ΠΕΡΙΦΕΡΕΙΑΚΗ ΕΝΟΤΗΤΑ ΣΠΟΡΑΔΩΝ",
        "nameEN": "Sporades Regional Unit",
        "level": 4,
        "parentCode": "231",
        "latitude": 39.2694372,
        "longitude": 23.9976279,
        "createdAt": "2026-02-23T12:35:00.451Z",
        "updatedAt": "2026-03-13T11:00:44.745Z",
        "children": [
          {
            "id": "cmlz5sw1c007rxxfkoo8qijit",
            "code": "2312502",
            "nameEL": "ΔΗΜΟΣ ΑΛΟΝΝΗΣΟΥ",
            "nameEN": "Municipality of Alonnisos",
            "level": 5,
            "parentCode": "23125",
            "latitude": 39.2123073,
            "longitude": 23.9093931,
            "createdAt": "2026-02-23T12:35:01.296Z",
            "updatedAt": "2026-03-13T11:00:46.607Z",
            "children": []
          },
          {
            "id": "cmlz5svpd007pxxfkozqgy5zi",
            "code": "2312501",
            "nameEL": "ΔΗΜΟΣ ΣΚΙΑΘΟΥ",
            "nameEN": "Skiathos Municipality",
            "level": 5,
            "parentCode": "23125",
            "latitude": 39.1692985,
            "longitude": 23.4552513,
            "createdAt": "2026-02-23T12:35:00.865Z",
            "updatedAt": "2026-03-13T11:00:45.674Z",
            "children": []
          },
          {
            "id": "cmlz5swav007txxfkrfdywz36",
            "code": "2312503",
            "nameEL": "ΔΗΜΟΣ ΣΚΟΠΕΛΟΥ",
            "nameEN": "Municipality of Skopelos",
            "level": 5,
            "parentCode": "23125",
            "latitude": 39.1401737,
            "longitude": 23.681376,
            "createdAt": "2026-02-23T12:35:01.639Z",
            "updatedAt": "2026-03-13T11:00:47.532Z",
            "children": []
          }
        ]
      },
      {
        "id": "cmlz5swo8007vxxfk7oyu0a03",
        "code": "23126",
        "nameEL": "ΠΕΡΙΦΕΡΕΙΑΚΗ ΕΝΟΤΗΤΑ ΤΡΙΚΑΛΩΝ",
        "nameEN": "Regional Unit of Trikala",
        "level": 4,
        "parentCode": "231",
        "latitude": 39.628389,
        "longitude": 21.6475963,
        "createdAt": "2026-02-23T12:35:02.121Z",
        "updatedAt": "2026-03-13T11:00:48.740Z",
        "children": [
          {
            "id": "cmlz5sxcr007zxxfkmhzlr3y1",
            "code": "2312602",
            "nameEL": "ΔΗΜΟΣ ΚΑΛΑΜΠΑΚΑΣ",
            "nameEN": "Municipality of Kalambaka",
            "level": 5,
            "parentCode": "23126",
            "latitude": 39.7225469,
            "longitude": 21.4739305,
            "createdAt": "2026-02-23T12:35:03.003Z",
            "updatedAt": "2026-03-13T11:00:50.683Z",
            "children": []
          },
          {
            "id": "cmlz5sxp70081xxfkggif6mc0",
            "code": "2312603",
            "nameEL": "ΔΗΜΟΣ ΠΥΛΗΣ",
            "nameEN": "Municipality of Pylis",
            "level": 5,
            "parentCode": "23126",
            "latitude": 39.4737717,
            "longitude": 21.4647561,
            "createdAt": "2026-02-23T12:35:03.451Z",
            "updatedAt": "2026-03-13T11:00:51.668Z",
            "children": []
          },
          {
            "id": "cmlz5sx24007xxxfkpdu8o662",
            "code": "2312601",
            "nameEL": "ΔΗΜΟΣ ΤΡΙΚΚΑΙΩΝ",
            "nameEN": "Municipality of Trikkaion",
            "level": 5,
            "parentCode": "23126",
            "latitude": 39.6097746,
            "longitude": 21.7415879,
            "createdAt": "2026-02-23T12:35:02.620Z",
            "updatedAt": "2026-03-13T11:00:49.734Z",
            "children": []
          },
          {
            "id": "cmlz5sy0n0083xxfksuojzjw1",
            "code": "2312604",
            "nameEL": "ΔΗΜΟΣ ΦΑΡΚΑΔΟΝΑΣ",
            "nameEN": "Municipality of Farkadona",
            "level": 5,
            "parentCode": "23126",
            "latitude": 39.613,
            "longitude": 22.0390892,
            "createdAt": "2026-02-23T12:35:03.747Z",
            "updatedAt": "2026-03-13T11:00:52.608Z",
            "children": []
          }
        ]
      }
    ]
  },
  {
    "id": "cmlz5t8d0009vxxfkkf509ply",
    "code": "241",
    "nameEL": "ΠΕΡΙΦΕΡΕΙΑ ΙΟΝΙΩΝ ΝΗΣΩΝ",
    "nameEN": "Ionian Islands Region",
    "level": 3,
    "parentCode": null,
    "latitude": 38.1995033,
    "longitude": 20.5810124,
    "createdAt": "2026-02-23T12:35:17.268Z",
    "updatedAt": "2026-03-13T11:01:23.660Z",
    "children": [
      {
        "id": "cmlz5t9ie00a3xxfkho3zojkl",
        "code": "24133",
        "nameEL": "ΠΕΡΙΦΕΡΕΙΑΚΗ ΕΝΟΤΗΤΑ ΖΑΚΥΝΘΟΥ",
        "nameEN": "Zakynthos Regional Unit",
        "level": 4,
        "parentCode": "241",
        "latitude": 37.7252125,
        "longitude": 20.7710325,
        "createdAt": "2026-02-23T12:35:18.758Z",
        "updatedAt": "2026-03-13T11:01:27.393Z",
        "children": [
          {
            "id": "cmlz5t9yn00a5xxfkxvai5tv8",
            "code": "2413301",
            "nameEL": "ΔΗΜΟΣ ΖΑΚΥΝΘΟΥ",
            "nameEN": "Municipality of Zakynthos",
            "level": 5,
            "parentCode": "24133",
            "latitude": 37.7891384,
            "longitude": 20.7900896,
            "createdAt": "2026-02-23T12:35:19.255Z",
            "updatedAt": "2026-03-13T11:01:28.479Z",
            "children": []
          }
        ]
      },
      {
        "id": "cmlz5ta7700a7xxfkj00vshuu",
        "code": "24134",
        "nameEL": "ΠΕΡΙΦΕΡΕΙΑΚΗ ΕΝΟΤΗΤΑ ΙΘΑΚΗΣ",
        "nameEN": "Regional Unit of Ithaca",
        "level": 4,
        "parentCode": "241",
        "latitude": 38.4296756,
        "longitude": 20.727513,
        "createdAt": "2026-02-23T12:35:19.652Z",
        "updatedAt": "2026-03-13T11:01:29.525Z",
        "children": [
          {
            "id": "cmlz5tag000a9xxfke2686lvc",
            "code": "2413401",
            "nameEL": "ΔΗΜΟΣ ΙΘΑΚΗΣ",
            "nameEN": "Municipality of Ithaca",
            "level": 5,
            "parentCode": "24134",
            "latitude": 38.4018961,
            "longitude": 20.6700929,
            "createdAt": "2026-02-23T12:35:19.969Z",
            "updatedAt": "2026-03-13T11:01:30.523Z",
            "children": []
          }
        ]
      },